establishment_id,establishment_number,establishment_name,duns_number,street,city,state,zip,phone,grant_date,type,activities,dbas,district,circuit,size,latitude,longitude,county,fips_code,meat_exemption_custom_slaughter,poultry_exemption_custom_slaughter,slaughter,meat_slaughter,beef_cow_slaughter,steer_slaughter,heifer_slaughter,bull_stag_slaughter,dairy_cow_slaughter,heavy_calf_slaughter,bob_veal_slaughter,formula_fed_veal_slaughter,non_formula_fed_veal_slaughter,market_swine_slaughter,sow_slaughter,roaster_swine_slaughter,boar_stag_swine_slaughter,stag_swine_slaughter,feral_swine_slaughter,goat_slaughter,young_goat_slaughter,adult_goat_slaughter,sheep_slaughter,lamb_slaughter,deer_reindeer_slaughter,antelope_slaughter,elk_slaughter,bison_slaughter,buffalo_slaughter,water_buffalo_slaughter,cattalo_slaughter,yak_slaughter,other_voluntary_livestock_slaughter,rabbit_slaughter,poultry_slaughter,young_chicken_slaughter,light_fowl_slaughter,heavy_fowl_slaughter,capon_slaughter,young_turkey_slaughter,young_breeder_turkey_slaughter,old_breeder_turkey_slaughter,fryer_roaster_turkey_slaughter,duck_slaughter,goose_slaughter,pheasant_slaughter,quail_slaughter,guinea_slaughter,ostrich_slaughter,emu_slaughter,rhea_slaughter,squab_slaughter,other_voluntary_poultry_slaughter,slaughter_or_processing_only,slaughter_only_class,slaughter_only_species,meat_slaughter_only_species,poultry_slaughter_only_species,slaughter_volume_category,processing_volume_category,beef_processing,pork_processing,antelope_processing,bison_processing,buffalo_processing,deer_processing,elk_processing,goat_processing,other_voluntary_livestock_processing,rabbit_processing,reindeer_processing,sheep_processing,yak_processing,chicken_processing,duck_processing,goose_processing,pigeon_processing,ratite_processing,turkey_processing,exotic_poultry_processing,other_voluntary_poultry_processing
11845140,11845140,ABONO DE LOMBRIZ EL AGUILA,,CALLE Miguel Hidalgo KM 0+500,EL AGUILA,Aguascalientes,20635,,2025-05,Aquaculture Farm,Piscicultura en agua dulce,GUILLERMINA TORRES CAMPOS  SC DE RL DE CV,,,,22.19551252,-102.25728565,Tepezalá,,,,,,,,,,,,,,,,,,,,,,,,,,,,,,,,,,,,,,,,,,,,,,,,,,,,,,,,,,,,,,,,,,,,,,,,,,,,,,,,,,
11845143,11845143,ANCAGS RANICULTURA,,CIRCUITO Zinfandel KM 4+200,LOS NEGRITOS,Aguascalientes,20326,4491101944,2025-05,Aquaculture Farm,Otra acuicultura,,,,,21.87615395,-102.34264366,Aguascalientes,,,,,,,,,,,,,,,,,,,,,,,,,,,,,,,,,,,,,,,,,,,,,,,,,,,,,,,,,,,,,,,,,,,,,,,,,,,,,,,,,,
10847159,10847159,BASCULA LAS ISABELES,,CARRETERA LOCALIDAD 800 DOMICILIO CONOCIDO,LAS ISABELES,Aguascalientes,20200,,2024-11,Farm / Breeder,Servicios relacionados con la cría y explotación de animales,,,,,21.82674015,-102.32769647,Aguascalientes,,,,,,,,,,,,,,,,,,,,,,,,,,,,,,,,,,,,,,,,,,,,,,,,,,,,,,,,,,,,,,,,,,,,,,,,,,,,,,,,,,
6166248,6166248,CENTRO ACUICOLA PABELLON DE HIDALGO,,OTRO(ESPECIFIQUE) CAMINO REAL 0 DOMICILIO CONOCIDO,VIVERO PSIFACTORIA,Aguascalientes,,,2010-07,Aquaculture Farm,Piscicultura en agua dulce,SAGARPA,,,,22.16777778,-102.3455556,Rincón de Romos,,,,,,,,,,,,,,,,,,,,,,,,,,,,,,,,,,,,,,,,,,,,,,,,,,,,,,,,,,,,,,,,,,,,,,,,,,,,,,,,,,
11479377,11479377,CRYOGEN,,CARRETERA LOCALIDAD 800 DOMICILIO CONOCIDO,LAS ISABELES,Aguascalientes,20200,4499195298,2024-11,Farm / Breeder,Servicios relacionados con la cría y explotación de animales,,,,,21.82674015,-102.32769647,Aguascalientes,,,,,,,,,,,,,,,,,,,,,,,,,,,,,,,,,,,,,,,,,,,,,,,,,,,,,,,,,,,,,,,,,,,,,,,,,,,,,,,,,,
9745363,9745363,FITORGANICA,,CALLE PARRAS 410,LA ESCONDIDA,Aguascalientes,20304,,2024-11,Farm / Breeder,Servicios relacionados con la cría y explotación de animales,,,,,22.03649453,-102.2570088,San Francisco de los Romo,,,,,,,,,,,,,,,,,,,,,,,,,,,,,,,,,,,,,,,,,,,,,,,,,,,,,,,,,,,,,,,,,,,,,,,,,,,,,,,,,,
11845144,11845144,FLOMELI GRANJA ACUICOL,,CALLE Verano 102 SN Int. 0,EL CARMEN,Aguascalientes,20615,,2025-05,Aquaculture Farm,Piscicultura en agua dulce,,,,,22.24414884,-102.22180811,Tepezalá,,,,,,,,,,,,,,,,,,,,,,,,,,,,,,,,,,,,,,,,,,,,,,,,,,,,,,,,,,,,,,,,,,,,,,,,,,,,,,,,,,
6166233,6166233,G ACUICOLA SANTA ROSA,,OTRO(ESPECIFIQUE) TERREMOTO 0 SN,EL LLANO EL TERREMOTO,Aguascalientes,,,2014-12,Aquaculture Farm,Piscicultura en agua dulce,,,,,21.95629778,-101.99731194,El Llano,,,,,,,,,,,,,,,,,,,,,,,,,,,,,,,,,,,,,,,,,,,,,,,,,,,,,,,,,,,,,,,,,,,,,,,,,,,,,,,,,,
11356951,11356951,GRANJA ACUICOLA ALAN,,OTRO(ESPECIFIQUE) SAN AGUSTIN 0 DOMICILIO CONOCIDO,RANCHO NUEVO,Aguascalientes,,4651177782,2024-11,Aquaculture Farm,Piscicultura en agua dulce,,,,,22.07394112,-102.1515042,San Francisco de los Romo,,,,,,,,,,,,,,,,,,,,,,,,,,,,,,,,,,,,,,,,,,,,,,,,,,,,,,,,,,,,,,,,,,,,,,,,,,,,,,,,,,
6166234,6166234,GRANJA ACUICOLA ARROYO DE LOS CABALLOS,,CALLE CUAUHTEMOC 102,ARROYO OJOCALIENTILLO,Aguascalientes,,4494281331,2014-12,Aquaculture Farm,Piscicultura en agua dulce,,,,,21.83725483,-102.71093072,Calvillo,,,,,,,,,,,,,,,,,,,,,,,,,,,,,,,,,,,,,,,,,,,,,,,,,,,,,,,,,,,,,,,,,,,,,,,,,,,,,,,,,,
11845142,11845142,GRANJA ACUICOLA LOS ADOBES,,CALLE Calle del Deporte 0 SN,5 DE MAYO,Aguascalientes,20671,4651186038,2025-05,Aquaculture Farm,Otra acuicultura,,,,,22.14682192,-102.28100722,Pabellón de Arteaga,,,,,,,,,,,,,,,,,,,,,,,,,,,,,,,,,,,,,,,,,,,,,,,,,,,,,,,,,,,,,,,,,,,,,,,,,,,,,,,,,,
11845145,11845145,GRANJA ACUICOLA RANCHO LA MISION,,CALLE Carretera Panamericana 0 SN,EL SALITRILLO,Aguascalientes,20435,4491231717,2025-05,Aquaculture Farm,Camaronicultura y acuicultura de otros crustáceos en agua dulce,,,,,22.18189147,-102.29538617,Rincón de Romos,,,,,,,,,,,,,,,,,,,,,,,,,,,,,,,,,,,,,,,,,,,,,,,,,,,,,,,,,,,,,,,,,,,,,,,,,,,,,,,,,,
8908752,8908752,GRANJA EL CHAVEÑO CENTRO DE REPRODUCCION INVESTIGACION E INOVACION TECNOLOGICA,,CALLE XOCONOXTLE 0 DOMICILIO CONOCIDO,CHAVEÑO,Aguascalientes,,4498131154,2019-11,Aquaculture Farm,Piscicultura en agua dulce,,,,,21.96152528,-102.36127111,Jesús María,,,,,,,,,,,,,,,,,,,,,,,,,,,,,,,,,,,,,,,,,,,,,,,,,,,,,,,,,,,,,,,,,,,,,,,,,,,,,,,,,,
11845066,11845066,GRANJA LA PERLA,,CALLE LAZARO CARDENAS 202,FRESNILLO,Aguascalientes,,4651196859,2025-05,Aquaculture Farm,Piscicultura en agua dulce,FRANCISCO DE AVILA RODRIGUEZ SC,,,,22.24472185,-102.33828059,Rincón de Romos,,,,,,,,,,,,,,,,,,,,,,,,,,,,,,,,,,,,,,,,,,,,,,,,,,,,,,,,,,,,,,,,,,,,,,,,,,,,,,,,,,
11845141,11845141,GRANJA SAN ISIDRO,,CALLE Dinastía 218,EL PUERTECITO,Aguascalientes,20805,4959589306,2025-05,Aquaculture Farm,Camaronicultura y acuicultura de otros crustáceos en agua dulce,,,,,21.84888752,-102.75520471,Calvillo,,,,,,,,,,,,,,,,,,,,,,,,,,,,,,,,,,,,,,,,,,,,,,,,,,,,,,,,,,,,,,,,,,,,,,,,,,,,,,,,,,
8789655,8789655,PISCICULTURA EN AGUA DULCE SIN NOMBRE,,CALLE NAYARIT 0 SN Int. 7,JESUS TERAN VILLA,Aguascalientes,,4491067898,2019-11,Aquaculture Farm,Piscicultura en agua dulce,,,,,21.85702149,-102.28005911,Aguascalientes,,,,,,,,,,,,,,,,,,,,,,,,,,,,,,,,,,,,,,,,,,,,,,,,,,,,,,,,,,,,,,,,,,,,,,,,,,,,,,,,,,
9046074,9046074,RANCHO ACUICOLA EL INDIO,,CALLE MAR CARIBE 125,COLINAS DEL RIO,Aguascalientes,,4493292415,2019-11,Aquaculture Farm,Piscicultura en agua dulce,RANCHO ACUICOLA INDIO S DE RL,,,,21.89688223,-102.3182311,Aguascalientes,,,,,,,,,,,,,,,,,,,,,,,,,,,,,,,,,,,,,,,,,,,,,,,,,,,,,,,,,,,,,,,,,,,,,,,,,,,,,,,,,,
6252543,6252543,TURISTICA LOMA DE PIEDRA,,CALLE MORELOS 86,MALPASO,Aguascalientes,,4951064891,2014-12,Aquaculture Farm,Piscicultura en agua dulce,TURISTICA LOMA DE PIEDRA SA DE CV,,,,21.86170583,-102.6651759,Calvillo,,,,,,,,,,,,,,,,,,,,,,,,,,,,,,,,,,,,,,,,,,,,,,,,,,,,,,,,,,,,,,,,,,,,,,,,,,,,,,,,,,
8838283,8838283,ABULONES CULTIVADOS,,CALLE MACHERO 366 11,ZONA CENTRO,Baja California,,,2019-11,Aquaculture Farm,Otra acuicultura,ABULONES CULTIVADOS S DE RL DE CV,,,,31.8621572,-116.6267073,Ensenada,,,,,,,,,,,,,,,,,,,,,,,,,,,,,,,,,,,,,,,,,,,,,,,,,,,,,,,,,,,,,,,,,,,,,,,,,,,,,,,,,,
6166436,6166436,ACUACULTURA OCEANICA,,AVENIDA La Marina 187 B Int. 0,ZONA CENTRO,Baja California,22800,,2010-07,Aquaculture Farm,Otra acuicultura,ACUACULTURA OCEANICA S DE RL MI,,,,31.86175373,-116.62808869,Ensenada,,,,,,,,,,,,,,,,,,,,,,,,,,,,,,,,,,,,,,,,,,,,,,,,,,,,,,,,,,,,,,,,,,,,,,,,,,,,,,,,,,
11845021,11845021,ACUICOLA SAN QUINTIN,,CALLE Ninguno 0 SN,ACUICOLA SAN QUINTIN,Baja California,22934,6461309983,2025-05,Aquaculture Farm,Piscicultura en agua dulce,ACUICOLA SAN QUINTIN SA DE CV,,,,30.44193417,-115.99320056,San Quintín,,,,,,,,,,,,,,,,,,,,,,,,,,,,,,,,,,,,,,,,,,,,,,,,,,,,,,,,,,,,,,,,,,,,,,,,,,,,,,,,,,
6166487,6166487,ACUICOLA TRIPLEA,,OTRO(ESPECIFIQUE) NINGUNO 0 DOMICILIO CONOCIDO,VENUSTIANO CARRANZA,Baja California,,,2010-07,Aquaculture Farm,Piscicultura en agua dulce,,,,,32.20725336,-115.1462315,Mexicali,,,,,,,,,,,,,,,,,,,,,,,,,,,,,,,,,,,,,,,,,,,,,,,,,,,,,,,,,,,,,,,,,,,,,,,,,,,,,,,,,,
6166290,6166290,ADMINISTRADORA PESQUERA DEL NOROESTE,,PRIVADA Ninguno 3,FONDEPORT (EL SAUZAL),Baja California,22760,,2014-12,Aquaculture Farm,Piscicultura en agua salada,ADMINISTRADORA PESQUERA DEL NOROESTE SA DE CV,,,,31.89695746,-116.70758276,Ensenada,,,,,,,,,,,,,,,,,,,,,,,,,,,,,,,,,,,,,,,,,,,,,,,,,,,,,,,,,,,,,,,,,,,,,,,,,,,,,,,,,,
7156055,7156055,AGROPESCA DE MEXICO,,CALLE TRES SN Int. 0,MANCHURIA,Baja California,22760,,2019-11,Aquaculture Farm,Piscicultura en agua dulce,AGROPESCA DE MEXICO SA DE CV,,,,31.89912075,-116.70900461,Ensenada,,,,,,,,,,,,,,,,,,,,,,,,,,,,,,,,,,,,,,,,,,,,,,,,,,,,,,,,,,,,,,,,,,,,,,,,,,,,,,,,,,
6166289,6166289,ATUN OCEANO PACIFICO,,PRIVADA Ninguno 2,FONDEPORT (EL SAUZAL DE RODRIGUEZ),Baja California,22760,,2014-12,Aquaculture Farm,Piscicultura en agua salada,ATUN OCEANO PACIFICO SA DE CV,,,,31.89704676,-116.70744376,Ensenada,,,,,,,,,,,,,,,,,,,,,,,,,,,,,,,,,,,,,,,,,,,,,,,,,,,,,,,,,,,,,,,,,,,,,,,,,,,,,,,,,,
6752874,6752874,BAJA REEF AQUACULTURE,,CALLE H DE LAS MORAS 280 Int. 0,VALLE VERDE PARTE ALTA,Baja California,,6461507816,2016-10,Aquaculture Farm,Otra acuicultura,BAJA REEF AQUACULTURE S DE RL DE CV,,,,31.88732237,-116.59518212,Ensenada,,,,,,,,,,,,,,,,,,,,,,,,,,,,,,,,,,,,,,,,,,,,,,,,,,,,,,,,,,,,,,,,,,,,,,,,,,,,,,,,,,
6166503,6166503,BAÑAGA DEL MAR,,CALLE SEXTA 156,SAN QUINTIN,Baja California,,6161070125,2014-12,Aquaculture Farm,Otra acuicultura,BAÑAGA DEL MAR S DE RL DE CV,,,,30.56581055,-115.94433907,San Quintín,,,,,,,,,,,,,,,,,,,,,,,,,,,,,,,,,,,,,,,,,,,,,,,,,,,,,,,,,,,,,,,,,,,,,,,,,,,,,,,,,,
8011848,8011848,BIVALVA,,CALLE La Marina 187 B,ZONA CENTRO,Baja California,22896,6461781684,2019-11,Aquaculture Farm,Otra acuicultura,BIVALVA SA DE CV,,,,31.81413538,-116.58748884,Ensenada,,,,,,,,,,,,,,,,,,,,,,,,,,,,,,,,,,,,,,,,,,,,,,,,,,,,,,,,,,,,,,,,,,,,,,,,,,,,,,,,,,
6166411,6166411,BRISA MARINA,,CALLE EMILIANO ZAPATA 304,PADRE KINO,Baja California,,6161359176,2010-07,Aquaculture Farm,Otra acuicultura,,,,,30.52821389,-115.9367213,San Quintín,,,,,,,,,,,,,,,,,,,,,,,,,,,,,,,,,,,,,,,,,,,,,,,,,,,,,,,,,,,,,,,,,,,,,,,,,,,,,,,,,,
10757021,10757021,COOPERATIVA JACMED,,CARRETERA TKT MXCLI KM 113 113,COOPERATIVA JACMECD,Baja California,,,2024-11,Aquaculture Farm,Piscicultura en agua salada,COOPERATIVA JACMED SC DE RL DE CV,,,,32.571755,-116.4078561,Tecate,,,,,,,,,,,,,,,,,,,,,,,,,,,,,,,,,,,,,,,,,,,,,,,,,,,,,,,,,,,,,,,,,,,,,,,,,,,,,,,,,,
6166434,6166434,CULTIVADORES DEL PACIFICO,,CALLE SAN FELIPE 187,ACAPULCO,Baja California,,6461136184,2010-07,Aquaculture Farm,Otra acuicultura,CULTIVADORES DEL PACIFICO S DE RL,,,,31.83573668,-116.60443049,Ensenada,,,,,,,,,,,,,,,,,,,,,,,,,,,,,,,,,,,,,,,,,,,,,,,,,,,,,,,,,,,,,,,,,,,,,,,,,,,,,,,,,,
6166422,6166422,GRANJA OSTRICOLA EL RINCON,,CALLE Ninguno 0 SN Int. 0 SN,BAHIA LA CHORERA,Baja California,22934,,2010-07,Aquaculture Farm,Otra acuicultura,GRANJA OSTRICOLA EL RINCON S DE RL DE CV,,,,30.46035616,-116.03902374,San Quintín,,,,,,,,,,,,,,,,,,,,,,,,,,,,,,,,,,,,,,,,,,,,,,,,,,,,,,,,,,,,,,,,,,,,,,,,,,,,,,,,,,
9499001,9499001,INSPECCION FITOSANITARIA,,BOULEVARD ABELARDO L RODRIGUEZ 816,COMPUERTAS,Baja California,21218,,2024-11,Farm / Breeder,Servicios relacionados con la cría y explotación de animales,SAGARPA,,,,32.66039946,-115.37500306,Mexicali,,,,,,,,,,,,,,,,,,,,,,,,,,,,,,,,,,,,,,,,,,,,,,,,,,,,,,,,,,,,,,,,,,,,,,,,,,,,,,,,,,
9450263,9450263,LIVE BAIT,,CALLE EMILIANO ZAPATA 100 Int. 0,SAUZAL,Baja California,22760,,2023-11,Aquaculture Farm,Piscicultura en agua dulce,LIVE BAIT ENSENADA SA DE CV,,,,31.89874242,-116.69943836,Ensenada,,,,,,,,,,,,,,,,,,,,,,,,,,,,,,,,,,,,,,,,,,,,,,,,,,,,,,,,,,,,,,,,,,,,,,,,,,,,,,,,,,
6166485,6166485,MORRO SANTO DOMINGO SPR DE RL,,CALLE Ninguno 0 Int. 0 SN,VILLA JESUS MARIA,Baja California,22994,,2010-07,Aquaculture Farm,Otra acuicultura,MORRO SANTO DOMINGO SPR DE RL S DE RL,,,,28.24828046,-114.09208983,San Quintín,,,,,,,,,,,,,,,,,,,,,,,,,,,,,,,,,,,,,,,,,,,,,,,,,,,,,,,,,,,,,,,,,,,,,,,,,,,,,,,,,,
6740777,6740777,ORNAMENTAL LIFE,,CALLE ARIES 624,VILLAS DEL SOL,Baja California,,6461901520,2016-10,Aquaculture Farm,Otra acuicultura,ORNAMENTAL LIFE S DE RL DE CV,,,,31.89707202,-116.7079002,Ensenada,,,,,,,,,,,,,,,,,,,,,,,,,,,,,,,,,,,,,,,,,,,,,,,,,,,,,,,,,,,,,,,,,,,,,,,,,,,,,,,,,,
11845146,11845146,OSTIONES DEL NOROESTE,,CALLE Alejandra 606,NUEVA ERA,Baja California,22930,,2025-05,Aquaculture Farm,Otra acuicultura,OSTIONES DEL NOROESTE S DE RL,,,,30.50614472,-115.91878161,San Quintín,,,,,,,,,,,,,,,,,,,,,,,,,,,,,,,,,,,,,,,,,,,,,,,,,,,,,,,,,,,,,,,,,,,,,,,,,,,,,,,,,,
11845023,11845023,OSTIONES GUERRERO,,CALLE Ninguno 0 SN,OSTIONES GUERRERO,Baja California,22930,6161054569,2025-05,Aquaculture Farm,Piscicultura en agua salada,OSTIONES GUERRERO SA DE CV,,,,30.46207785,-116.03971524,San Quintín,,,,,,,,,,,,,,,,,,,,,,,,,,,,,,,,,,,,,,,,,,,,,,,,,,,,,,,,,,,,,,,,,,,,,,,,,,,,,,,,,,
7863371,7863371,OTRA ACUICULTURA SIN NOMBRE,,CALLE DEL PUERTO 1850,HIDALGO,Baja California,,6461207722,2019-11,Aquaculture Farm,Otra acuicultura,,,,,31.86012799,-116.5885083,Ensenada,,,,,,,,,,,,,,,,,,,,,,,,,,,,,,,,,,,,,,,,,,,,,,,,,,,,,,,,,,,,,,,,,,,,,,,,,,,,,,,,,,
6726153,6726153,PACIFICO AQUACULTURE,,CALZADA Vista al Mar 500 SN Int. 0,EL SAUZAL,Baja California,22760,6461565089,2016-01,Aquaculture Farm,Piscicultura en agua salada,PACIFICO AQUACULTURE SAPI DE CV,,,,31.90319035,-116.70524511,Ensenada,,,,,,,,,,,,,,,,,,,,,,,,,,,,,,,,,,,,,,,,,,,,,,,,,,,,,,,,,,,,,,,,,,,,,,,,,,,,,,,,,,
6166272,6166272,PESCA CHIAPAS,,AVENIDA GALEANA 352 Int. 0,BAHIA,Baja California,22880,,2014-12,Farm / Breeder,Servicios relacionados con la cría y explotación de animales,PESCA CHIAPAS SA DE CV,,,,31.85822503,-116.60344459,Ensenada,,,,,,,,,,,,,,,,,,,,,,,,,,,,,,,,,,,,,,,,,,,,,,,,,,,,,,,,,,,,,,,,,,,,,,,,,,,,,,,,,,
7863324,7863324,PRODUCTORES MARINOS BAJA,,CALLE PARCELA 76 SN 0 DOMICILIO CONOCIDO,ERENDIRA,Baja California,,,2019-11,Aquaculture Farm,Otra acuicultura,PRODUCTORES MARINOS BAJA SA DE CV,,,,31.27651323,-116.3762239,Ensenada,,,,,,,,,,,,,,,,,,,,,,,,,,,,,,,,,,,,,,,,,,,,,,,,,,,,,,,,,,,,,,,,,,,,,,,,,,,,,,,,,,
11845022,11845022,PRODUCTOS MARINOS,,OTRO(ESPECIFIQUE) CAMINO A BAHIA FALSA 0 SN,PRODUCTOS MARINOS SPR DE RL,Baja California,,6161242596,2025-05,Aquaculture Farm,Otra acuicultura,PRODUCTOS MARINOS,,,,30.45155056,-115.9979878,San Quintín,,,,,,,,,,,,,,,,,,,,,,,,,,,,,,,,,,,,,,,,,,,,,,,,,,,,,,,,,,,,,,,,,,,,,,,,,,,,,,,,,,
9290980,9290980,PRODUCTOS MARINOS DE LAS CALIFORNIAS,,CALLE SEIS 9834,FONDEPORT,Baja California,,6121523661,2020-11,Aquaculture Farm,Otra acuicultura,PRODUCTOS MARINOS DE LAS CALIFORNIAS S DE RL DE CV,,,,31.8968694,-116.70714288,Ensenada,,,,,,,,,,,,,,,,,,,,,,,,,,,,,,,,,,,,,,,,,,,,,,,,,,,,,,,,,,,,,,,,,,,,,,,,,,,,,,,,,,
9276518,9276518,PUNTA FINAL DEL GOLFO,,CALLE PLACIDO MATA 2314,BENITO JUAREZ,Baja California,22820,,2020-11,Aquaculture Farm,Piscicultura en agua salada,,,,,31.88700526,-116.618009,Ensenada,,,,,,,,,,,,,,,,,,,,,,,,,,,,,,,,,,,,,,,,,,,,,,,,,,,,,,,,,,,,,,,,,,,,,,,,,,,,,,,,,,
8724099,8724099,SE SESMA ESCALANTE,,CALZADA Vista al Mar 0 SN,EL SAUZAL,Baja California,22760,,2019-11,Aquaculture Farm,Otra acuicultura,SE SESMA ESCALANTE,,,,31.90420825,-116.71112743,Ensenada,,,,,,,,,,,,,,,,,,,,,,,,,,,,,,,,,,,,,,,,,,,,,,,,,,,,,,,,,,,,,,,,,,,,,,,,,,,,,,,,,,
9598968,9598968,ACUICULTURA,,CALLE NINGUNO 0 SN,LA POZA GRANDE,Baja California Sur,,6131243972,2024-11,Aquaculture Farm,Otra acuicultura,,,,,25.76872315,-112.02354759,Comondú,,,,,,,,,,,,,,,,,,,,,,,,,,,,,,,,,,,,,,,,,,,,,,,,,,,,,,,,,,,,,,,,,,,,,,,,,,,,,,,,,,
11845159,11845159,ACUICULTURA,,CALLE Mariano Salinas 0 SN Int. 0,CENTRO,Baja California Sur,23710,6131138860,2025-05,Aquaculture Farm,Otra acuicultura,,,,,25.18959939,-112.10244431,Comondú,,,,,,,,,,,,,,,,,,,,,,,,,,,,,,,,,,,,,,,,,,,,,,,,,,,,,,,,,,,,,,,,,,,,,,,,,,,,,,,,,,
11845026,11845026,ACUICULTURA,,CALLE Ninguno 0 SN,SANTO DOMINGO,Baja California Sur,,6131099608,2025-05,Aquaculture Farm,Otra acuicultura,,,,,25.4954267,-111.91740095,Comondú,,,,,,,,,,,,,,,,,,,,,,,,,,,,,,,,,,,,,,,,,,,,,,,,,,,,,,,,,,,,,,,,,,,,,,,,,,,,,,,,,,
11845047,11845047,ACUICULTURA DE OSTION JAPONES,,CALLE Ninguno 0 SN,LA POZA GRANDE,Baja California Sur,23830,6131257123,2025-05,Aquaculture Farm,Otra acuicultura,,,,,25.76727791,-112.02633917,Comondú,,,,,,,,,,,,,,,,,,,,,,,,,,,,,,,,,,,,,,,,,,,,,,,,,,,,,,,,,,,,,,,,,,,,,,,,,,,,,,,,,,
10575671,10575671,ACUICULTURA DE OSTION JAPONES,,CALLE NINGUNO 0 SN Int. 0 SN,LA POZA GRANDE,Baja California Sur,,6131178669,2024-11,Aquaculture Farm,Otra acuicultura,,,,,25.76890427,-112.0249688,Comondú,,,,,,,,,,,,,,,,,,,,,,,,,,,,,,,,,,,,,,,,,,,,,,,,,,,,,,,,,,,,,,,,,,,,,,,,,,,,,,,,,,
9865035,9865035,BAJAS AWESOME BEACH RIDES,,CALLE 20 DE NOVIEMBRE 0 SN,LOS BARRILES,Baja California Sur,23330,,2024-11,Farm / Breeder,Servicios relacionados con la cría y explotación de animales,LUCAS DE LOS BARRILES SA DE CV,,,,23.69018554,-109.70059397,La Paz,,,,,,,,,,,,,,,,,,,,,,,,,,,,,,,,,,,,,,,,,,,,,,,,,,,,,,,,,,,,,,,,,,,,,,,,,,,,,,,,,,
6808230,6808230,BLUE GENETICS MEXICO,,AVENIDA 5 DE MAYO 0 SN Int. 22,CENTRO,Baja California Sur,,6121376840,2017-11,Aquaculture Farm,Camaronicultura y acuicultura de otros crustáceos en agua salada,BLUE GENETICS MEXICO SA DE CV,,,,24.16339683,-110.31496038,La Paz,,,,,,,,,,,,,,,,,,,,,,,,,,,,,,,,,,,,,,,,,,,,,,,,,,,,,,,,,,,,,,,,,,,,,,,,,,,,,,,,,,
11845147,11845147,CAMARONICULTURA Y ACUICULTURA DE OTROS CRUSTÁCEOS EN AGUA SALADA SIN NOMBRE,,AVENIDA Profesor Marcelo Rubio Ruíz 0 SN,MESA MEXICO,Baja California Sur,23920,6151112445,2025-05,Aquaculture Farm,Piscicultura en agua dulce,,,,,27.33197535,-112.26400644,Mulegé,,,,,,,,,,,,,,,,,,,,,,,,,,,,,,,,,,,,,,,,,,,,,,,,,,,,,,,,,,,,,,,,,,,,,,,,,,,,,,,,,,
10759393,10759393,CAMARONICULTURA Y ACUICULTURA DE OTROS CRUSTÁCEOS EN AGUA SALADA SIN NOMBRE,,CALLE NINGUNO 0 SN,POZA GRANDE,Baja California Sur,23830,,2024-11,Aquaculture Farm,Camaronicultura y acuicultura de otros crustáceos en agua salada,,,,,25.76871827,-112.0296175,Comondú,,,,,,,,,,,,,,,,,,,,,,,,,,,,,,,,,,,,,,,,,,,,,,,,,,,,,,,,,,,,,,,,,,,,,,,,,,,,,,,,,,
9778644,9778644,COOPERATIVA EL JAIBON,,CALLE NINGUNO 0 SN,POZA GRANDE,Baja California Sur,,6131407124,2024-11,Aquaculture Farm,Otra acuicultura,SOCIEDAD COOPERATIVA EL JAIBON SC DE RL DE CV,,,,25.76835464,-112.03031529,Comondú,,,,,,,,,,,,,,,,,,,,,,,,,,,,,,,,,,,,,,,,,,,,,,,,,,,,,,,,,,,,,,,,,,,,,,,,,,,,,,,,,,
9951865,9951865,COOPERATIVA ELORCONCITO,,CALLE JUAN DOMINGUEZ COTA 0 SN,SANTO DOMINGO,Baja California Sur,,6241514325,2024-11,Aquaculture Farm,Otra acuicultura,,,,,25.49020931,-111.9168283,Comondú,,,,,,,,,,,,,,,,,,,,,,,,,,,,,,,,,,,,,,,,,,,,,,,,,,,,,,,,,,,,,,,,,,,,,,,,,,,,,,,,,,
11063733,11063733,CRAS ACUACULTURA,,AVENIDA 5 DE MAYO 670 Int. 3,CENTRO,Baja California Sur,,,2024-11,Aquaculture Farm,Camaronicultura y acuicultura de otros crustáceos en agua salada,CRAS ACUACULTURA SC DE RL DE CV,,,,24.15887437,-110.30833735,La Paz,,,,,,,,,,,,,,,,,,,,,,,,,,,,,,,,,,,,,,,,,,,,,,,,,,,,,,,,,,,,,,,,,,,,,,,,,,,,,,,,,,
11845028,11845028,CULTIVO DE OSTION,,CALLE Ninguno 0 SN,SANTO DOMINGO,Baja California Sur,,6131187687,2025-05,Aquaculture Farm,Otra acuicultura,,,,,25.49299862,-111.92020474,Comondú,,,,,,,,,,,,,,,,,,,,,,,,,,,,,,,,,,,,,,,,,,,,,,,,,,,,,,,,,,,,,,,,,,,,,,,,,,,,,,,,,,
11845029,11845029,CULTIVO DE OSTION,,CALLE Ninguno 0 SN Int. 0 SN,SANTO DOMINGO,Baja California Sur,23844,6131180413,2025-05,Aquaculture Farm,Otra acuicultura,,,,,25.49304179,-111.92002491,Comondú,,,,,,,,,,,,,,,,,,,,,,,,,,,,,,,,,,,,,,,,,,,,,,,,,,,,,,,,,,,,,,,,,,,,,,,,,,,,,,,,,,
11845030,11845030,CULTIVO DE OSTION,,CALLE La Jojoba 0 SN,SANTO DOMINGO,Baja California Sur,23850,6131292224,2025-05,Aquaculture Farm,Otra acuicultura,,,,,25.4921054,-111.92000811,Comondú,,,,,,,,,,,,,,,,,,,,,,,,,,,,,,,,,,,,,,,,,,,,,,,,,,,,,,,,,,,,,,,,,,,,,,,,,,,,,,,,,,
11845031,11845031,CULTIVO DE OSTION,,CALLE La Jojoba 0 SN,SANTO DOMINGO,Baja California Sur,,,2025-05,Aquaculture Farm,Otra acuicultura,,,,,25.49239782,-111.91850282,Comondú,,,,,,,,,,,,,,,,,,,,,,,,,,,,,,,,,,,,,,,,,,,,,,,,,,,,,,,,,,,,,,,,,,,,,,,,,,,,,,,,,,
11845032,11845032,CULTIVO DE OSTION,,CALLE Miguel Hidalgo 0 SN Int. 0 SN,SANTO DOMINGO,Baja California Sur,23844,6131249359,2025-05,Aquaculture Farm,Otra acuicultura,,,,,25.49195057,-111.91768251,Comondú,,,,,,,,,,,,,,,,,,,,,,,,,,,,,,,,,,,,,,,,,,,,,,,,,,,,,,,,,,,,,,,,,,,,,,,,,,,,,,,,,,
11845033,11845033,CULTIVO DE OSTION,,CALLE Santos Castro Beltran 0 SN,SANTO DOMINGO,Baja California Sur,23850,6131249359,2025-05,Aquaculture Farm,Otra acuicultura,,,,,25.49154117,-111.91728229,Comondú,,,,,,,,,,,,,,,,,,,,,,,,,,,,,,,,,,,,,,,,,,,,,,,,,,,,,,,,,,,,,,,,,,,,,,,,,,,,,,,,,,
11845034,11845034,CULTIVO DE OSTION,,CALLE Santos Castro Beltran 0 SN Int. 0,SANTO DOMINGO,Baja California Sur,23850,6131184386,2025-05,Aquaculture Farm,Otra acuicultura,,,,,25.49102801,-111.91967395,Comondú,,,,,,,,,,,,,,,,,,,,,,,,,,,,,,,,,,,,,,,,,,,,,,,,,,,,,,,,,,,,,,,,,,,,,,,,,,,,,,,,,,
11001785,11001785,CULTIVO DE OSTION,,CALLE LUIS ECHEVERRIA 0 SN,SANTO DOMINGO,Baja California Sur,,,2024-11,Aquaculture Farm,Otra acuicultura,,,,,25.49112823,-111.9192192,Comondú,,,,,,,,,,,,,,,,,,,,,,,,,,,,,,,,,,,,,,,,,,,,,,,,,,,,,,,,,,,,,,,,,,,,,,,,,,,,,,,,,,
8789505,8789505,CULTIVOS DEL MAR DEL PACIFICO,,AVENIDA Lázaro Cárdenas 0 SN,FUNDO LEGAL,Baja California Sur,23940,,2019-11,Aquaculture Farm,Camaronicultura y acuicultura de otros crustáceos en agua dulce,CULTIVOS DEL MAR DEL PACIFICO SA DE CV,,,,27.97661098,-114.03117125,Mulegé,,,,,,,,,,,,,,,,,,,,,,,,,,,,,,,,,,,,,,,,,,,,,,,,,,,,,,,,,,,,,,,,,,,,,,,,,,,,,,,,,,
9301382,9301382,EARTH OCEAN FARMS,,BOULEVARD GENERAL AGUSTIN OLACHEA AVILES SN Int. 0,EL CENTENARIO,Baja California Sur,23205,,2020-11,Aquaculture Farm,Piscicultura en agua salada,EARTH OCEAN FARM S DE RL DE CV,,,,24.09743938,-110.39353034,La Paz,,,,,,,,,,,,,,,,,,,,,,,,,,,,,,,,,,,,,,,,,,,,,,,,,,,,,,,,,,,,,,,,,,,,,,,,,,,,,,,,,,
6167164,6167164,EL CAMARON SUREÑO,,BOULEVARD LUIS DONALDO COLOSIO 0 SN,INDECO,Baja California Sur,,,2010-07,Aquaculture Farm,Camaronicultura y acuicultura de otros crustáceos en agua salada,EL CAMARON SUREÑO,,,,24.12570067,-110.31695699,La Paz,,,,,,,,,,,,,,,,,,,,,,,,,,,,,,,,,,,,,,,,,,,,,,,,,,,,,,,,,,,,,,,,,,,,,,,,,,,,,,,,,,
8870990,8870990,ESTEROS SANTO DOMINGO,,CALLE La Jojoba 0 SN,SANTO DOMINGO,Baja California Sur,,6131112116,2019-11,Aquaculture Farm,Otra acuicultura,ESTEROS SANTO DOMINGO SA DE CV,,,,25.491801,-111.92063437,Comondú,,,,,,,,,,,,,,,,,,,,,,,,,,,,,,,,,,,,,,,,,,,,,,,,,,,,,,,,,,,,,,,,,,,,,,,,,,,,,,,,,,
6167135,6167135,GRANJAS MARINAS DE SINALOA,,CALLE LUIS DONALDO COLOSIO 0 SN Int. 0 SN,INDECO,Baja California Sur,,,2010-07,Aquaculture Farm,Camaronicultura y acuicultura de otros crustáceos en agua salada,GRANJAS MARINAS DE SINALOA SA DE CV,,,,24.12569915,-110.31695481,La Paz,,,,,,,,,,,,,,,,,,,,,,,,,,,,,,,,,,,,,,,,,,,,,,,,,,,,,,,,,,,,,,,,,,,,,,,,,,,,,,,,,,
11845158,11845158,JOSE IVAN GOMEZ ALEMAN PERMISIONARIO,,CALLE Ninguno 0 SN Int. 0 SN,SAN BUTO,Baja California Sur,23740,,2025-05,Aquaculture Farm,Otra acuicultura,,,,,24.78449743,-112.05221787,Comondú,,,,,,,,,,,,,,,,,,,,,,,,,,,,,,,,,,,,,,,,,,,,,,,,,,,,,,,,,,,,,,,,,,,,,,,,,,,,,,,,,,
6166805,6166805,LARVAS GRAN MAR,,BOULEVARD LUIS DONALDO COLOSIO 0 SN,INDECO,Baja California Sur,,,2014-12,Aquaculture Farm,Camaronicultura y acuicultura de otros crustáceos en agua salada,LARVAS GRAN MAR SA DE CV,,,,24.12570047,-110.3169567,La Paz,,,,,,,,,,,,,,,,,,,,,,,,,,,,,,,,,,,,,,,,,,,,,,,,,,,,,,,,,,,,,,,,,,,,,,,,,,,,,,,,,,
11844901,11844901,LAURA ELENA DEL PACIFICO,,CALLE NINGUNO 0 SN Int. 0 SN,CENTRO,Baja California Sur,,6131218049,2025-05,Aquaculture Farm,Otra acuicultura,LAURA ELENA DEL PACIFICO DEL PACIFICO SC DE RL DE CV,,,,25.54745389,-112.0663636,Comondú,,,,,,,,,,,,,,,,,,,,,,,,,,,,,,,,,,,,,,,,,,,,,,,,,,,,,,,,,,,,,,,,,,,,,,,,,,,,,,,,,,
6167082,6167082,MARIMEX DEL PACIFICO,,CALLE PASEO ALVARO OBREGON 720,EL ESTERITO,Baja California Sur,,,2010-07,Aquaculture Farm,Otra acuicultura,MARIMEX DEL PACIFICO S DE RL DE CV,,,,24.16787094,-110.31050529,La Paz,,,,,,,,,,,,,,,,,,,,,,,,,,,,,,,,,,,,,,,,,,,,,,,,,,,,,,,,,,,,,,,,,,,,,,,,,,,,,,,,,,
11845148,11845148,MARINE EDEN,,CALLE Cristóbal Colón 0 SN,INFONAVIT,Baja California Sur,,9211499458,2025-05,Aquaculture Farm,Otra acuicultura,MARINE EDEN SA DE CV,,,,27.97541188,-114.02547662,Mulegé,,,,,,,,,,,,,,,,,,,,,,,,,,,,,,,,,,,,,,,,,,,,,,,,,,,,,,,,,,,,,,,,,,,,,,,,,,,,,,,,,,
8806148,8806148,OMEGA AZUL,,CALLE Carretera a Pichilingue 8,PLAYA ERENDIRA,Baja California Sur,23208,6121409350,2019-11,Aquaculture Farm,Otra acuicultura,OMEGA AZUL SA DE CV,,,,24.23676651,-110.30738194,La Paz,,,,,,,,,,,,,,,,,,,,,,,,,,,,,,,,,,,,,,,,,,,,,,,,,,,,,,,,,,,,,,,,,,,,,,,,,,,,,,,,,,
11678671,11678671,OTRA ACUICULTURA SIN NOMBRE,,CALLE LUIS ECHEVERRIA ALVREZ 1,SANTO DOMINGO,Baja California Sur,,6131184321,2024-11,Aquaculture Farm,Otra acuicultura,,,,,25.48843583,-111.9219397,Comondú,,,,,,,,,,,,,,,,,,,,,,,,,,,,,,,,,,,,,,,,,,,,,,,,,,,,,,,,,,,,,,,,,,,,,,,,,,,,,,,,,,
6166659,6166659,OTRA ACUICULTURA SIN NOMBRE,,OTRO(ESPECIFIQUE) Terreno Baldío 0 SN Int. 0,CENTRO,Baja California Sur,,,2014-12,Aquaculture Farm,Otra acuicultura,,,,,25.19420753,-112.12351155,Comondú,,,,,,,,,,,,,,,,,,,,,,,,,,,,,,,,,,,,,,,,,,,,,,,,,,,,,,,,,,,,,,,,,,,,,,,,,,,,,,,,,,
9740037,9740037,OTRA ACUICULTURA SIN NOMBRE,,CALLE NINGUNO 0 SN,LA POZA GRANDE,Baja California Sur,,6131255058,2024-11,Aquaculture Farm,Otra acuicultura,,,,,25.76959434,-112.02793639,Comondú,,,,,,,,,,,,,,,,,,,,,,,,,,,,,,,,,,,,,,,,,,,,,,,,,,,,,,,,,,,,,,,,,,,,,,,,,,,,,,,,,,
11845161,11845161,OTRA ACUICULTURA SIN NOMBRE,,CALLE Paseo Costero 0 SN O,PUERTO SAN CARLOS,Baja California Sur,,6131138320,2025-05,Aquaculture Farm,Otra acuicultura,,,,,24.78630856,-112.09382006,Comondú,,,,,,,,,,,,,,,,,,,,,,,,,,,,,,,,,,,,,,,,,,,,,,,,,,,,,,,,,,,,,,,,,,,,,,,,,,,,,,,,,,
11845046,11845046,OTRA ACUICULTURA SIN NOMBRE,,CALLE Ninguno 0 SN,SANTO DOMINGO,Baja California Sur,23844,6131006024,2025-05,Aquaculture Farm,Otra acuicultura,,,,,25.49534861,-111.92174067,Comondú,,,,,,,,,,,,,,,,,,,,,,,,,,,,,,,,,,,,,,,,,,,,,,,,,,,,,,,,,,,,,,,,,,,,,,,,,,,,,,,,,,
11845126,11845126,OTRA ACUICULTURA SIN NOMBRE,,CALLE Ninguno 0 SN,INFONAVIT,Baja California Sur,23710,,2025-05,Aquaculture Farm,Otra acuicultura,,,,,25.19371877,-112.10466672,Comondú,,,,,,,,,,,,,,,,,,,,,,,,,,,,,,,,,,,,,,,,,,,,,,,,,,,,,,,,,,,,,,,,,,,,,,,,,,,,,,,,,,
11845157,11845157,OTRA ACUICULTURA SIN NOMBRE,,CALLE Ninguno 20,SANTO DOMINGO,Baja California Sur,,,2025-05,Aquaculture Farm,Otra acuicultura,,,,,25.49349887,-111.91863048,Comondú,,,,,,,,,,,,,,,,,,,,,,,,,,,,,,,,,,,,,,,,,,,,,,,,,,,,,,,,,,,,,,,,,,,,,,,,,,,,,,,,,,
11845035,11845035,OTRA ACUICULTURA SIN NOMBRE,,CALLE Ninguno 1,SANTO DOMINGO,Baja California Sur,23850,6131298172,2025-05,Aquaculture Farm,Otra acuicultura,,,,,25.48883538,-111.92200296,Comondú,,,,,,,,,,,,,,,,,,,,,,,,,,,,,,,,,,,,,,,,,,,,,,,,,,,,,,,,,,,,,,,,,,,,,,,,,,,,,,,,,,
11845042,11845042,OTRA ACUICULTURA SIN NOMBRE,,CALLE Ninguno 0 SN,SANTO DOMINGO,Baja California Sur,,,2025-05,Aquaculture Farm,Otra acuicultura,,,,,25.49622586,-111.92135718,Comondú,,,,,,,,,,,,,,,,,,,,,,,,,,,,,,,,,,,,,,,,,,,,,,,,,,,,,,,,,,,,,,,,,,,,,,,,,,,,,,,,,,
11845044,11845044,OTRA ACUICULTURA SIN NOMBRE,,CALLE Ninguno 0 SN,SANTO DOMINGO,Baja California Sur,23844,,2025-05,Aquaculture Farm,Otra acuicultura,,,,,25.49302483,-111.92295525,Comondú,,,,,,,,,,,,,,,,,,,,,,,,,,,,,,,,,,,,,,,,,,,,,,,,,,,,,,,,,,,,,,,,,,,,,,,,,,,,,,,,,,
11845036,11845036,OTRA ACUICULTURA SIN NOMBRE,,CALLE Ninguno 1 SN Int. 0,SANTO DOMINGO,Baja California Sur,23850,,2025-05,Aquaculture Farm,Otra acuicultura,,,,,25.48846288,-111.92204278,Comondú,,,,,,,,,,,,,,,,,,,,,,,,,,,,,,,,,,,,,,,,,,,,,,,,,,,,,,,,,,,,,,,,,,,,,,,,,,,,,,,,,,
11845037,11845037,OTRA ACUICULTURA SIN NOMBRE,,CALLE Santos Castro Beltran 0 SN Int. 0,SANTO DOMINGO,Baja California Sur,23850,,2025-05,Aquaculture Farm,Otra acuicultura,,,,,25.49060755,-111.92063045,Comondú,,,,,,,,,,,,,,,,,,,,,,,,,,,,,,,,,,,,,,,,,,,,,,,,,,,,,,,,,,,,,,,,,,,,,,,,,,,,,,,,,,
11845038,11845038,OTRA ACUICULTURA SIN NOMBRE,,CALLE Juan Domínguez Cota 1 SN Int. 0,SANTO DOMINGO,Baja California Sur,23850,6131143075,2025-05,Aquaculture Farm,Otra acuicultura,,,,,25.49034088,-111.91691443,Comondú,,,,,,,,,,,,,,,,,,,,,,,,,,,,,,,,,,,,,,,,,,,,,,,,,,,,,,,,,,,,,,,,,,,,,,,,,,,,,,,,,,
11845039,11845039,OTRA ACUICULTURA SIN NOMBRE,,CALLE Ninguno 0 SN,SANTO DOMINGO,Baja California Sur,23844,6131376215,2025-05,Aquaculture Farm,Otra acuicultura,,,,,25.49375522,-111.91744384,Comondú,,,,,,,,,,,,,,,,,,,,,,,,,,,,,,,,,,,,,,,,,,,,,,,,,,,,,,,,,,,,,,,,,,,,,,,,,,,,,,,,,,
11845040,11845040,OTRA ACUICULTURA SIN NOMBRE,,CALLE Ninguno 0 SN,SANTO DOMINGO,Baja California Sur,23084,6131142481,2025-05,Aquaculture Farm,Otra acuicultura,,,,,25.49550746,-111.92104849,Comondú,,,,,,,,,,,,,,,,,,,,,,,,,,,,,,,,,,,,,,,,,,,,,,,,,,,,,,,,,,,,,,,,,,,,,,,,,,,,,,,,,,
10137365,10137365,OTRA ACUICULTURA SIN NOMBRE,,CALLE JUAN DOMINGUEZ COTA 1 Int. 1,SANTO DOMINGO,Baja California Sur,,6131160588,2024-11,Aquaculture Farm,Otra acuicultura,,,,,25.49035265,-111.9212979,Comondú,,,,,,,,,,,,,,,,,,,,,,,,,,,,,,,,,,,,,,,,,,,,,,,,,,,,,,,,,,,,,,,,,,,,,,,,,,,,,,,,,,
6166981,6166981,OTRA ACUICULTURA SIN NOMBRE,,CALLE NINGUNO 0 SN,CENTRO,Baja California Sur,,6131142481,2010-07,Aquaculture Farm,Otra acuicultura,,,,,25.4915101,-111.9202818,Comondú,,,,,,,,,,,,,,,,,,,,,,,,,,,,,,,,,,,,,,,,,,,,,,,,,,,,,,,,,,,,,,,,,,,,,,,,,,,,,,,,,,
11845025,11845025,PECES DIVERSOS,,CALLE Ninguno 0 SN,SANTO DOMINGO,Baja California Sur,23850,6131092618,2025-05,Aquaculture Farm,Otra acuicultura,,,,,25.49346045,-111.92424618,Comondú,,,,,,,,,,,,,,,,,,,,,,,,,,,,,,,,,,,,,,,,,,,,,,,,,,,,,,,,,,,,,,,,,,,,,,,,,,,,,,,,,,
11845043,11845043,PESCADOR INDEPENDIENTE,,CALLE Ninguno 0 SN,SANTO DOMINGO,Baja California Sur,23844,6242441923,2025-05,Aquaculture Farm,Otra acuicultura,,,,,25.4955873,-111.92351477,Comondú,,,,,,,,,,,,,,,,,,,,,,,,,,,,,,,,,,,,,,,,,,,,,,,,,,,,,,,,,,,,,,,,,,,,,,,,,,,,,,,,,,
11845045,11845045,PESCADOR INDEPENDIENTE,,CALLE Ninguno 0 SN,SANTO DOMINGO,Baja California Sur,23844,,2025-05,Aquaculture Farm,Otra acuicultura,,,,,25.49373349,-111.92259954,Comondú,,,,,,,,,,,,,,,,,,,,,,,,,,,,,,,,,,,,,,,,,,,,,,,,,,,,,,,,,,,,,,,,,,,,,,,,,,,,,,,,,,
11845027,11845027,PESCADOR INDEPENDIENTE,,CALLE La Jojoba 0 SN Int. 0 SN,SANTO DOMINGO,Baja California Sur,23844,6131009155,2025-05,Aquaculture Farm,Otra acuicultura,,,,,25.49191085,-111.92094448,Comondú,,,,,,,,,,,,,,,,,,,,,,,,,,,,,,,,,,,,,,,,,,,,,,,,,,,,,,,,,,,,,,,,,,,,,,,,,,,,,,,,,,
11845024,11845024,PESCADOR INDEPENDIENTE SIN NOMBRE,,CALLE Ninguno 0 SN,SANTO DOMINGO,Baja California Sur,23850,6131004027,2025-05,Aquaculture Farm,Otra acuicultura,,,,,25.49388771,-111.92328165,Comondú,,,,,,,,,,,,,,,,,,,,,,,,,,,,,,,,,,,,,,,,,,,,,,,,,,,,,,,,,,,,,,,,,,,,,,,,,,,,,,,,,,
11845041,11845041,PESCADOR Y ACUICULTURA,,CALLE Ninguno 0 SN,SANTO DOMINGO,Baja California Sur,23844,,2025-05,Aquaculture Farm,Otra acuicultura,,,,,25.49555528,-111.92083173,Comondú,,,,,,,,,,,,,,,,,,,,,,,,,,,,,,,,,,,,,,,,,,,,,,,,,,,,,,,,,,,,,,,,,,,,,,,,,,,,,,,,,,
9965522,9965522,PISCICULTURA EN AGUA SALADA SIN NOMBRE,,CALLE NINGUNO 0 SN,LA POZA GRANDE,Baja California Sur,,6121994685,2024-11,Aquaculture Farm,Piscicultura en agua salada,,,,,25.77174068,-112.02538634,Comondú,,,,,,,,,,,,,,,,,,,,,,,,,,,,,,,,,,,,,,,,,,,,,,,,,,,,,,,,,,,,,,,,,,,,,,,,,,,,,,,,,,
8835827,8835827,SC PALMITAS,,CALLE Jalisco 0 SN,ADOLFO LOPEZ MATEOS,Baja California Sur,23710,,2019-11,Aquaculture Farm,Otra acuicultura,SC PALMITAS SC DE RL DE CV,,,,25.19109163,-112.11753193,Comondú,,,,,,,,,,,,,,,,,,,,,,,,,,,,,,,,,,,,,,,,,,,,,,,,,,,,,,,,,,,,,,,,,,,,,,,,,,,,,,,,,,
8765504,8765504,SCPP EL INDIO MENDEZ,,CALLE LIMON 242,INDECO,Baja California Sur,,,2019-11,Aquaculture Farm,Otra acuicultura,SCPP EL INDIO MENDEZ SC DE RL DE CV,,,,24.11833859,-110.32398197,La Paz,,,,,,,,,,,,,,,,,,,,,,,,,,,,,,,,,,,,,,,,,,,,,,,,,,,,,,,,,,,,,,,,,,,,,,,,,,,,,,,,,,
6166968,6166968,SCPP HORCONCITO,,CALLE Benito Juárez 1,CENTRO,Baja California Sur,23850,,2010-07,Aquaculture Farm,Otra acuicultura,SCPP EL HORCONCITO SC DE RL,,,,25.4910938,-111.92005306,Comondú,,,,,,,,,,,,,,,,,,,,,,,,,,,,,,,,,,,,,,,,,,,,,,,,,,,,,,,,,,,,,,,,,,,,,,,,,,,,,,,,,,
6166995,6166995,SCPP LA FRIDERA,,CALLE Santos Castro Beltran 0 SN,SANTO DOMINGO,Baja California Sur,23850,,2014-12,Aquaculture Farm,Otra acuicultura,SCPP LA FRIDERA SC DE RL,,,,25.49040881,-111.92148151,Comondú,,,,,,,,,,,,,,,,,,,,,,,,,,,,,,,,,,,,,,,,,,,,,,,,,,,,,,,,,,,,,,,,,,,,,,,,,,,,,,,,,,
11845160,11845160,SCPP LAS ARENITAS DE LOPEZ SC DE RL CV,,CALLE Miguel Aleman V. 0 SN,CENTRO,Baja California Sur,23710,6131216652,2025-05,Aquaculture Farm,Otra acuicultura,MARELI YASMIN NIEBLA MORALES S DE RL DE CV,,,,25.18901579,-112.11362672,Comondú,,,,,,,,,,,,,,,,,,,,,,,,,,,,,,,,,,,,,,,,,,,,,,,,,,,,,,,,,,,,,,,,,,,,,,,,,,,,,,,,,,
8940124,8940124,SOCIEDAD COOPERATIVA ACUICOLA LA PALIZADA,,OTRO(ESPECIFIQUE) BRECHA A SAN VICENTE 0 SN,SAN VICENTE,Baja California Sur,,6121676316,2019-11,Aquaculture Farm,Otra acuicultura,SOCIEDAD COOPERATIVA ACIUCOLA LA PALIZADA SC DE RL DE CV,,,,25.43173861,-112.0668183,Comondú,,,,,,,,,,,,,,,,,,,,,,,,,,,,,,,,,,,,,,,,,,,,,,,,,,,,,,,,,,,,,,,,,,,,,,,,,,,,,,,,,,
9330480,9330480,SOCIEDAD COOPERATIVA BIVALVOS  DEL SAN BUTO,,OTRO(ESPECIFIQUE) SAN BUTO 0 SN,SAN BUTO,Baja California Sur,,6131245770,2020-11,Aquaculture Farm,Otra acuicultura,SOCIEDAD COOPERTIVA BIVALVOS DEL SAN BUTO SC DE RL,,,,24.76696242,-112.0468442,Comondú,,,,,,,,,,,,,,,,,,,,,,,,,,,,,,,,,,,,,,,,,,,,,,,,,,,,,,,,,,,,,,,,,,,,,,,,,,,,,,,,,,
11845150,11845150,SOCIEDAD COOPERATIVA BUENAVISTA CINCO,,CALLE Ninguno 15,SANTO DOMINGO,Baja California Sur,23850,,2025-05,Aquaculture Farm,Otra acuicultura,SOCIEDAD COOPERATIVA BUENAVISTA CINCO SC DE RL DE CV,,,,25.4932041,-111.91920749,Comondú,,,,,,,,,,,,,,,,,,,,,,,,,,,,,,,,,,,,,,,,,,,,,,,,,,,,,,,,,,,,,,,,,,,,,,,,,,,,,,,,,,
11845156,11845156,SOCIEDAD COOPERATIVA ESTERO EL GODIN,,CALLE Ninguno 5,SANTO DOMINGO,Baja California Sur,,,2025-05,Aquaculture Farm,Otra acuicultura,SOCIEDAD COOPERATIVA ESTERO EL GODIN SC DE RL DE CV,,,,25.49241286,-111.92358299,Comondú,,,,,,,,,,,,,,,,,,,,,,,,,,,,,,,,,,,,,,,,,,,,,,,,,,,,,,,,,,,,,,,,,,,,,,,,,,,,,,,,,,
11845155,11845155,SOCIEDAD COOPERATIVA ESTERO LAS BOTELLAS,,CALLE Ninguno 10,SANTO DOMINGO,Baja California Sur,23850,,2025-05,Aquaculture Farm,Otra acuicultura,SOCIEDAD COOPERATIVA ESTERO LAS BOTELLAS SC DE RL DE CV,,,,25.49227017,-111.92426813,Comondú,,,,,,,,,,,,,,,,,,,,,,,,,,,,,,,,,,,,,,,,,,,,,,,,,,,,,,,,,,,,,,,,,,,,,,,,,,,,,,,,,,
11845151,11845151,SOCIEDAD COOPERATIVA FUNDADORES DEL GODIN,,CALLE Benito Juárez 7,SANTO DOMINGO,Baja California Sur,23850,,2025-05,Aquaculture Farm,Otra acuicultura,SOCIEDAD COOPERATIVA FUNDADORES DEL GODIN SC DE RL DE CV,,,,25.49242564,-111.92036756,Comondú,,,,,,,,,,,,,,,,,,,,,,,,,,,,,,,,,,,,,,,,,,,,,,,,,,,,,,,,,,,,,,,,,,,,,,,,,,,,,,,,,,
11845152,11845152,SOCIEDAD COOPERATIVA LLANOS DE SANTO DOMINGO,,CALLE Ninguno 20,SANTO DOMINGO,Baja California Sur,,,2025-05,Aquaculture Farm,Otra acuicultura,SOCIEDAD COOPERATIVA LLANOS DE SANTO DOMINGO SC DE RL DE CV,,,,25.49337096,-111.92376949,Comondú,,,,,,,,,,,,,,,,,,,,,,,,,,,,,,,,,,,,,,,,,,,,,,,,,,,,,,,,,,,,,,,,,,,,,,,,,,,,,,,,,,
11845154,11845154,SOCIEDAD COOPERATIVA OSTIONERA BAJA SUR,,CALLE Benito Juárez 77,SANTO DOMINGO,Baja California Sur,,,2025-05,Aquaculture Farm,Otra acuicultura,SOCIEDAD COOPERATIVA OSTIONERA BAJA SUR SC DE RL DE CV,,,,25.48809435,-111.91936214,Comondú,,,,,,,,,,,,,,,,,,,,,,,,,,,,,,,,,,,,,,,,,,,,,,,,,,,,,,,,,,,,,,,,,,,,,,,,,,,,,,,,,,
11845153,11845153,SOCIEDAD COOPERATIVA SIRENAS DE ALTAMAR,,CALLE Ninguno 10,SANTO DOMINGO,Baja California Sur,,,2025-05,Aquaculture Farm,Otra acuicultura,SOCIEDAD COOPERATIVA SIRENAS DE ALTAMAR SC DE RL DE CV,,,,25.49019316,-111.9210633,Comondú,,,,,,,,,,,,,,,,,,,,,,,,,,,,,,,,,,,,,,,,,,,,,,,,,,,,,,,,,,,,,,,,,,,,,,,,,,,,,,,,,,
11845149,11845149,SOCIEDAD COOPERATIVA TIBURONES DEL BAJIO,,CALLE Ninguno 10,SANTO DOMINGO,Baja California Sur,,,2025-05,Aquaculture Farm,Otra acuicultura,SOCIEDAD COOPERATIVA TIBURONES DEL BAJIO SC DE RL DE CV,,,,25.49654215,-111.9209163,Comondú,,,,,,,,,,,,,,,,,,,,,,,,,,,,,,,,,,,,,,,,,,,,,,,,,,,,,,,,,,,,,,,,,,,,,,,,,,,,,,,,,,
10593174,10593174,SOCIEDAD COPERATIVA DE PRODUCCION PESQUERA,,CALLE NINGUNO SN,BAHIA TORTUGAS,Baja California Sur,23920,,2024-11,Aquaculture Farm,Camaronicultura y acuicultura de otros crustáceos en agua salada,EMANCIPACION S.C DE R.L. SC DE RL DE CV,,,,27.69490198,-114.89574005,Mulegé,,,,,,,,,,,,,,,,,,,,,,,,,,,,,,,,,,,,,,,,,,,,,,,,,,,,,,,,,,,,,,,,,,,,,,,,,,,,,,,,,,
6770238,6770238,SOL AZUL MARICULTIVOS,,CALLE PASEO ALVARO OBREGON 720 L2 Int. 0,EL ESTERITO,Baja California Sur,,6121240496,2016-10,Aquaculture Farm,Otra acuicultura,SOL AZUL SA DE CV,,,,24.16787095,-110.31050528,La Paz,,,,,,,,,,,,,,,,,,,,,,,,,,,,,,,,,,,,,,,,,,,,,,,,,,,,,,,,,,,,,,,,,,,,,,,,,,,,,,,,,,
170876,170876,SOOCIEDAD COOPERATIVA DE PRODUCTO PESQUERO Y ACUILCOLA PESCADORES DEL COMPLEJO LAGUNAR DE BAHIA MAGDALENA,,CALLE VENUSTIANO CARRANZA SN Int. 0,ADOLFO LOPEZ MATEOS,Baja California Sur,23710,,2014-12,Aquaculture Farm,Otra acuicultura,SOCIEDAD COOPERATIVA DE PRODUCTO PESQUERO Y ACUICOLA PESCADORES DEL COMPLEJO LAGUNAR DE BAHIA MAGDALENA SC DE RL,,,,25.19107795,-112.10674112,Comondú,,,,,,,,,,,,,,,,,,,,,,,,,,,,,,,,,,,,,,,,,,,,,,,,,,,,,,,,,,,,,,,,,,,,,,,,,,,,,,,,,,
8322023,8322023,ACUICOLA CAMPECHANOS UNIDOS,,CALLE NINGUNO 0 SN,EJIDO TIXMUCUY,Campeche,,,2019-11,Aquaculture Farm,Piscicultura en agua dulce,ACUICOLA CAMPECHANOS UNIDOS SC DE RL,,,,19.58618101,-90.31678852,Campeche,,,,,,,,,,,,,,,,,,,,,,,,,,,,,,,,,,,,,,,,,,,,,,,,,,,,,,,,,,,,,,,,,,,,,,,,,,,,,,,,,,
9707245,9707245,BIOSISTEMAS PRODUCTIVOS COCODRILOS,,CALLE NINGUNO 0 DOMICILIO CONOCIDO,BIOSISTEMAS PRODUCTIVOS COCODRILOS,Campeche,,9611875705,2024-11,Aquaculture Farm,Otra acuicultura,,,,,19.72826056,-90.51629778,Campeche,,,,,,,,,,,,,,,,,,,,,,,,,,,,,,,,,,,,,,,,,,,,,,,,,,,,,,,,,,,,,,,,,,,,,,,,,,,,,,,,,,
9722864,9722864,COOPERATIVA TESORO DEL MAR,,CALLE FLAMINGOS 0 SN,MIGUEL DE LA MADRID,Campeche,,9381332077,2024-11,Aquaculture Farm,Piscicultura en agua salada,,,,,18.6390116,-91.80821689,Carmen,,,,,,,,,,,,,,,,,,,,,,,,,,,,,,,,,,,,,,,,,,,,,,,,,,,,,,,,,,,,,,,,,,,,,,,,,,,,,,,,,,
9285088,9285088,CRIA DE COCODRILOS,,CARRETERA CARMEN PUERTO REAL 0 SN,COCODRILO MAYA,Campeche,,9383891864,2020-11,Aquaculture Farm,Otra acuicultura,SOCIEDAD DE PRODUCCION DE BIENES O SERVICIOS COCODRILOS MAYA SC DE RL,,,,18.70487639,-91.68552333,Carmen,,,,,,,,,,,,,,,,,,,,,,,,,,,,,,,,,,,,,,,,,,,,,,,,,,,,,,,,,,,,,,,,,,,,,,,,,,,,,,,,,,
11262871,11262871,CRIA Y VENTA DE PESCADO SIN NOMBRE,,CALLE 2 SN,TABASCO,Campeche,24354,,2024-11,Aquaculture Farm,Piscicultura en agua dulce,,,,,18.52157071,-90.76783614,Escárcega,,,,,,,,,,,,,,,,,,,,,,,,,,,,,,,,,,,,,,,,,,,,,,,,,,,,,,,,,,,,,,,,,,,,,,,,,,,,,,,,,,
10685905,10685905,CRIADERO Y MICROACUARIO RIO JORDAN,,CALLE 102 SN,SANT LUCIA,Campeche,24020,,2024-11,Aquaculture Farm,Piscicultura en agua dulce,,,,,19.84808444,-90.51680268,Campeche,,,,,,,,,,,,,,,,,,,,,,,,,,,,,,,,,,,,,,,,,,,,,,,,,,,,,,,,,,,,,,,,,,,,,,,,,,,,,,,,,,
11325996,11325996,EMULSIONES ASFALTICAS DEL CARMEN,,CARRETERA CD DEL CARMEN CAMPECHE 0 SN,BRISAS DEL MAR,Campeche,24157,9818290630,2024-11,Farm / Breeder,Servicios relacionados con la cría y explotación de animales,,,,,18.66986206,-91.75075448,Carmen,,,,,,,,,,,,,,,,,,,,,,,,,,,,,,,,,,,,,,,,,,,,,,,,,,,,,,,,,,,,,,,,,,,,,,,,,,,,,,,,,,
8810156,8810156,ENGORDA DE PECES Y MAS D CANDELARIA,,CALLE 3 1,FRANCISCO J MUJICA,Campeche,24333,9833278883,2019-11,Aquaculture Farm,Piscicultura en agua dulce,ALEJANDRO CROSS FARJAT,,,,18.16560933,-90.74111533,Candelaria,,,,,,,,,,,,,,,,,,,,,,,,,,,,,,,,,,,,,,,,,,,,,,,,,,,,,,,,,,,,,,,,,,,,,,,,,,,,,,,,,,
6167529,6167529,ESTANQUE EL MANGUITO,,PRIVADA NINGUNO 0 SN,SAN ANTONIO CARDENAS,Campeche,,9381055429,2014-12,Aquaculture Farm,Piscicultura en agua dulce,,,,,18.6130139,-92.22329455,Carmen,,,,,,,,,,,,,,,,,,,,,,,,,,,,,,,,,,,,,,,,,,,,,,,,,,,,,,,,,,,,,,,,,,,,,,,,,,,,,,,,,,
9713067,9713067,GRANJA ACUICOLA AKALAN,,CARRETERA CARRETERA DEL GOLFO SN,ATASTA,Campeche,24326,,2024-11,Aquaculture Farm,Piscicultura en agua dulce,,,,,18.61915678,-92.15102435,Carmen,,,,,,,,,,,,,,,,,,,,,,,,,,,,,,,,,,,,,,,,,,,,,,,,,,,,,,,,,,,,,,,,,,,,,,,,,,,,,,,,,,
6167512,6167512,GRANJA ACUICOLA COCOITE,,CARRETERA COLONIA EMILIANO ZAPATA KM 3+500 KM 3+500,POBLADO NUEVO PROGRESO,Campeche,,9381337071,2014-12,Aquaculture Farm,Piscicultura en agua salada,,,,,18.62122246,-92.28318165,Carmen,,,,,,,,,,,,,,,,,,,,,,,,,,,,,,,,,,,,,,,,,,,,,,,,,,,,,,,,,,,,,,,,,,,,,,,,,,,,,,,,,,
6167539,6167539,GRANJA ACUICOLA EL PROGRESO,,CALLE 20 DE NOVIEMBRE 0 SN Int. 0,NUEVO PROGRESO,Campeche,,,2014-12,Aquaculture Farm,Piscicultura en agua dulce,,,,,18.61770695,-92.29503602,Carmen,,,,,,,,,,,,,,,,,,,,,,,,,,,,,,,,,,,,,,,,,,,,,,,,,,,,,,,,,,,,,,,,,,,,,,,,,,,,,,,,,,
6167543,6167543,GRANJA ACUICOLA EL TABOR,,CALLE NINGUNO 0 DOMICILIO CONOCIDO,EMILIANO ZAPATA,Campeche,,,2014-12,Aquaculture Farm,Piscicultura en agua dulce,,,,,18.67251035,-92.31098187,Carmen,,,,,,,,,,,,,,,,,,,,,,,,,,,,,,,,,,,,,,,,,,,,,,,,,,,,,,,,,,,,,,,,,,,,,,,,,,,,,,,,,,
8836015,8836015,GRANJA ACUICOLA EL TAMARINDO,,CALLE FLORES 0 SN,SAN ANTONIO CARDENAS,Campeche,,9381820880,2019-11,Aquaculture Farm,Piscicultura en agua dulce,,,,,18.66298375,-92.23360544,Carmen,,,,,,,,,,,,,,,,,,,,,,,,,,,,,,,,,,,,,,,,,,,,,,,,,,,,,,,,,,,,,,,,,,,,,,,,,,,,,,,,,,
6167544,6167544,GRANJA ACUICOLA EMANUEL,,CARRETERA FEDERL 0 SN,NUEVO PROGRESO,Campeche,,9381528285,2014-12,Aquaculture Farm,Piscicultura en agua dulce,,,,,18.61774371,-92.29528779,Carmen,,,,,,,,,,,,,,,,,,,,,,,,,,,,,,,,,,,,,,,,,,,,,,,,,,,,,,,,,,,,,,,,,,,,,,,,,,,,,,,,,,
11845165,11845165,GRANJA ACUICOLA INTEGRAL AKALAN,,OTRO(ESPECIFIQUE) Maleza 0 SN Int. 0,ATASTA,Campeche,,9381785166,2025-05,Aquaculture Farm,Piscicultura en agua dulce,,,,,18.61884995,-92.10096046,Carmen,,,,,,,,,,,,,,,,,,,,,,,,,,,,,,,,,,,,,,,,,,,,,,,,,,,,,,,,,,,,,,,,,,,,,,,,,,,,,,,,,,
6167525,6167525,GRANJA ACUICOLA LA COLMENA,,CARRETERA FEDERAL VILLAHEROSA A CARMEN 0 SN,NUEVO PROGRESO,Campeche,,9381046815,2014-12,Aquaculture Farm,Piscicultura en agua dulce,,,,,18.62231914,-92.29408201,Carmen,,,,,,,,,,,,,,,,,,,,,,,,,,,,,,,,,,,,,,,,,,,,,,,,,,,,,,,,,,,,,,,,,,,,,,,,,,,,,,,,,,
8836089,8836089,GRANJA ACUICOLA LA FE,,CARRETERA ATASTA A EMILIANO ZAPATA 0 DOMICILIO CONOCIDO,NUEVO PROGRESO,Campeche,,,2019-11,Aquaculture Farm,Piscicultura en agua dulce,,,,,18.6701648,-92.31137731,Carmen,,,,,,,,,,,,,,,,,,,,,,,,,,,,,,,,,,,,,,,,,,,,,,,,,,,,,,,,,,,,,,,,,,,,,,,,,,,,,,,,,,
6167534,6167534,GRANJA ACUICOLA SAN JUAN,,CARRETERA CAMINO BLANCO 0 DOMICILIO CONOCIDO,SAN ANTONIO CARDENAS,Campeche,,9381237838,2014-12,Aquaculture Farm,Piscicultura en agua dulce,,,,,18.62427102,-92.24199844,Carmen,,,,,,,,,,,,,,,,,,,,,,,,,,,,,,,,,,,,,,,,,,,,,,,,,,,,,,,,,,,,,,,,,,,,,,,,,,,,,,,,,,
6167536,6167536,GRANJA ACUICOLA SAN MIGUEL,,CARRETERA FEDERAL KM 180 KM 180,SAN ANTONIO CARDENAS,Campeche,,,2014-12,Aquaculture Farm,Piscicultura en agua dulce,,,,,18.61157488,-92.24609185,Carmen,,,,,,,,,,,,,,,,,,,,,,,,,,,,,,,,,,,,,,,,,,,,,,,,,,,,,,,,,,,,,,,,,,,,,,,,,,,,,,,,,,
11376661,11376661,GRANJA DE PECES LA LUPITA,,CARRETERA CARRETERA DEL GOLFO SN,NUEVO PROGRESO,Campeche,24325,,2024-11,Aquaculture Farm,Piscicultura en agua dulce,,,,,18.62490466,-92.31432968,Carmen,,,,,,,,,,,,,,,,,,,,,,,,,,,,,,,,,,,,,,,,,,,,,,,,,,,,,,,,,,,,,,,,,,,,,,,,,,,,,,,,,,
6167531,6167531,GRANJA SANTA ROSA,,CARRETERA CAMINO BLANCO 0 SN,SAN ANTONIO CARDENAS,Campeche,,9381417442,2014-12,Aquaculture Farm,Piscicultura en agua dulce,,,,,18.61272116,-92.24300821,Carmen,,,,,,,,,,,,,,,,,,,,,,,,,,,,,,,,,,,,,,,,,,,,,,,,,,,,,,,,,,,,,,,,,,,,,,,,,,,,,,,,,,
11845003,11845003,GRANJAS LA LUPITAS,,CARRETERA CARRETERA DEL GOLFO 0 SN,LOCALIDAD NUEVO PROGRESO,Campeche,24326,,2025-05,Aquaculture Farm,Piscicultura en agua dulce,MARTIN FRIAS FLORES,,,,18.61807581,-92.29773025,Carmen,,,,,,,,,,,,,,,,,,,,,,,,,,,,,,,,,,,,,,,,,,,,,,,,,,,,,,,,,,,,,,,,,,,,,,,,,,,,,,,,,,
8322056,8322056,KICHPAN-KAY,,CALLE 10 37,PUEBLO TEPAKAN,Campeche,,,2019-11,Aquaculture Farm,Piscicultura en agua dulce,KICHPAN-KAY SC DE RL DE CV,,,,20.39773234,-90.04162953,Calkiní,,,,,,,,,,,,,,,,,,,,,,,,,,,,,,,,,,,,,,,,,,,,,,,,,,,,,,,,,,,,,,,,,,,,,,,,,,,,,,,,,,
9051376,9051376,LOS ALMENDROS VERDES DE CHAMPOTON,,CARRETERA CHAMPOTON A ESCARCEGA 0 DOMICILIO CONOCIDO,LOS ALMENDROS,Campeche,,9821072255,2019-11,Aquaculture Farm,Piscicultura en agua dulce,LOS ALMENDROS VERDES DE CHAMPOTON,,,,19.34463984,-90.72094427,Champotón,,,,,,,,,,,,,,,,,,,,,,,,,,,,,,,,,,,,,,,,,,,,,,,,,,,,,,,,,,,,,,,,,,,,,,,,,,,,,,,,,,
6167422,6167422,LOS MENDEZ DE SAN ANTONIO DEL RIO,,CALLE SAN ANTONIO DEL RIO 0 SN,SAN ANTONIO DEL RIO,Campeche,,9821201041,2014-12,Aquaculture Farm,Piscicultura en agua dulce,PATRICIA MENDEZ PERALTA  S DE RL,,,,19.32053001,-90.55415566,Champotón,,,,,,,,,,,,,,,,,,,,,,,,,,,,,,,,,,,,,,,,,,,,,,,,,,,,,,,,,,,,,,,,,,,,,,,,,,,,,,,,,,
6167430,6167430,MALLY NAYLU,,CALLE ALEMAN 1 SN,EL NARANJO,Campeche,,9935979578,2014-12,Aquaculture Farm,Piscicultura en agua dulce,SOC COOP NAYLU SC DE RL,,,,18.01789278,-91.12410583,Candelaria,,,,,,,,,,,,,,,,,,,,,,,,,,,,,,,,,,,,,,,,,,,,,,,,,,,,,,,,,,,,,,,,,,,,,,,,,,,,,,,,,,
8836183,8836183,PISCICULTURA EN AGUA DULCE SIN NOMBRE,,CARRETERA NINGUNO 0 SN,LAS BODEGAS,Campeche,,9131105396,2019-11,Aquaculture Farm,Piscicultura en agua dulce,,,,,18.27172985,-91.98944184,Palizada,,,,,,,,,,,,,,,,,,,,,,,,,,,,,,,,,,,,,,,,,,,,,,,,,,,,,,,,,,,,,,,,,,,,,,,,,,,,,,,,,,
11845162,11845162,PISCICULTURA EN AGUA DULCE SIN NOMBRE,,CALLE Ninguno 1 Int. 0,PARAISO NUEVO,Campeche,,9831064990,2025-05,Aquaculture Farm,Piscicultura en agua dulce,,,,,18.07281267,-91.10725195,Candelaria,,,,,,,,,,,,,,,,,,,,,,,,,,,,,,,,,,,,,,,,,,,,,,,,,,,,,,,,,,,,,,,,,,,,,,,,,,,,,,,,,,
6167524,6167524,PISCICULTURA EN AGUA DULCE SIN NOMBRE,,CALLE FLORES 0 SN,SAN ANTONIO CARDENAS,Campeche,,,2014-12,Aquaculture Farm,Piscicultura en agua dulce,,,,,18.62094986,-92.29479893,Carmen,,,,,,,,,,,,,,,,,,,,,,,,,,,,,,,,,,,,,,,,,,,,,,,,,,,,,,,,,,,,,,,,,,,,,,,,,,,,,,,,,,
9225215,9225215,PISCICULTURA EN AGUA DULCE SIN NOMBRE,,CALLE NINGUNO 0 SN Int. 0 SN,MAMANTEL VIEJO,Campeche,,9821113139,2020-04,Aquaculture Farm,Piscicultura en agua dulce,,,,,18.54072163,-91.09762456,Carmen,,,,,,,,,,,,,,,,,,,,,,,,,,,,,,,,,,,,,,,,,,,,,,,,,,,,,,,,,,,,,,,,,,,,,,,,,,,,,,,,,,
6167521,6167521,PISCICULTURA EN AGUA DULCE SIN NOMBRE,,CALLE NINGUNO 0 SN,NUEVO PROGRESO,Campeche,,,2014-12,Aquaculture Farm,Piscicultura en agua dulce,,,,,18.62230565,-92.29392936,Carmen,,,,,,,,,,,,,,,,,,,,,,,,,,,,,,,,,,,,,,,,,,,,,,,,,,,,,,,,,,,,,,,,,,,,,,,,,,,,,,,,,,
8810086,8810086,PISCICULTURA EN AGUA DULCE SIN NOMBRE,,CARRETERA CARRETERA VILLAHERMOSA A ESCARCEGA KM 250 KM 250 Int. 0 SN,LA NUEVA ESPERANZA,Campeche,,9821043337,2019-11,Aquaculture Farm,Piscicultura en agua dulce,,,,,18.48807093,-91.12374506,Carmen,,,,,,,,,,,,,,,,,,,,,,,,,,,,,,,,,,,,,,,,,,,,,,,,,,,,,,,,,,,,,,,,,,,,,,,,,,,,,,,,,,
6167597,6167597,SCAPP LAGUNA DEL PALMAR SC DE RL,,CALLE NINGUNO 0 SN Int. 0 SN,JOBAL,Campeche,,9381201449,2014-12,Aquaculture Farm,Piscicultura en agua dulce,SCAPP LAGUNA DEL PALMAR SAPI DE CV,,,,18.73228639,-90.90370617,Carmen,,,,,,,,,,,,,,,,,,,,,,,,,,,,,,,,,,,,,,,,,,,,,,,,,,,,,,,,,,,,,,,,,,,,,,,,,,,,,,,,,,
6167598,6167598,SCP DE B Y S RENOVACION PESQUERA,,CALLE 16 0 SN,JOBALITO,Campeche,,9381060533,2010-07,Aquaculture Farm,Piscicultura en agua dulce,SCP DE B Y S RENOVACION PESQUERA SC DE RL,,,,18.73164811,-90.90269468,Carmen,,,,,,,,,,,,,,,,,,,,,,,,,,,,,,,,,,,,,,,,,,,,,,,,,,,,,,,,,,,,,,,,,,,,,,,,,,,,,,,,,,
6167596,6167596,SCPPB Y S ISLA DE TRIANGULOS,,CALLE 16 0 SN,JOBALITO,Campeche,,,2010-07,Aquaculture Farm,Piscicultura en agua dulce,SCPPB Y S ISLA DE TRIANGULOS SC DE RL DE CV,,,,18.73231905,-90.90323901,Carmen,,,,,,,,,,,,,,,,,,,,,,,,,,,,,,,,,,,,,,,,,,,,,,,,,,,,,,,,,,,,,,,,,,,,,,,,,,,,,,,,,,
9928100,9928100,SISTEMA DE MOJADO PARA POLLOS,,CALLE 25 A 0 SN,GUADALUPE,Campeche,24900,9992713273,2024-11,Farm / Breeder,Servicios relacionados con la cría y explotación de animales,,,,,20.3628773,-90.04396288,Calkiní,,,,,,,,,,,,,,,,,,,,,,,,,,,,,,,,,,,,,,,,,,,,,,,,,,,,,,,,,,,,,,,,,,,,,,,,,,,,,,,,,,
8836268,8836268,SOC DE PROD RURAL PROPEHOCAND,,CALLE 3 1 SN,FRANCISCO J MUJICA,Campeche,24300,9821158328,2019-11,Aquaculture Farm,Piscicultura en agua dulce,SOC DE PROD RURAL PROPEHOCAND,,,,18.16545296,-90.74131332,Candelaria,,,,,,,,,,,,,,,,,,,,,,,,,,,,,,,,,,,,,,,,,,,,,,,,,,,,,,,,,,,,,,,,,,,,,,,,,,,,,,,,,,
6167583,6167583,SOCIEDAD DE PRODUCCION PESQUERA ACUICOLA EL CARACOL,,CALLE NINGUNO 0 SN Int. 0 SN,LA CRISTALINA,Campeche,,9821178352,2014-12,Aquaculture Farm,Piscicultura en agua dulce,LUIS LOPEZ OLETA SC DE RL,,,,18.73377388,-91.05369538,Carmen,,,,,,,,,,,,,,,,,,,,,,,,,,,,,,,,,,,,,,,,,,,,,,,,,,,,,,,,,,,,,,,,,,,,,,,,,,,,,,,,,,
11845164,11845164,SOCIEDAD DE PRODUCCION PESQUERA ACUICOLA LA PUNTILLA,,CALLE 16 0 SN,EL JOBALITO,Campeche,,,2025-05,Aquaculture Farm,Piscicultura en agua dulce,SOCIEDAD DE PRODUCCION PESQUERA ACUICOLA LA PUNTILA SC DE RL,,,,18.72772546,-90.89812936,Carmen,,,,,,,,,,,,,,,,,,,,,,,,,,,,,,,,,,,,,,,,,,,,,,,,,,,,,,,,,,,,,,,,,,,,,,,,,,,,,,,,,,
11845163,11845163,SOCIEDAD DE PRODUCCION PESQUERA LA MALINCHE,,CALLE 8 0 SN,ABELARDO L RODRIGUEZ,Campeche,,,2025-05,Aquaculture Farm,Piscicultura en agua dulce,SOCIEDAD DE PRODUCCION PESQUERA LA MALINCHE SC DE RL,,,,18.72719035,-90.90376941,Carmen,,,,,,,,,,,,,,,,,,,,,,,,,,,,,,,,,,,,,,,,,,,,,,,,,,,,,,,,,,,,,,,,,,,,,,,,,,,,,,,,,,
9660302,9660302,VENTA DE PESCADO SIN NOMBRE,,CALLE 9 SN,LA CRUZ,Campeche,24400,,2024-11,Aquaculture Farm,Piscicultura en agua dulce,,,,,19.34099576,-90.72154698,Champotón,,,,,,,,,,,,,,,,,,,,,,,,,,,,,,,,,,,,,,,,,,,,,,,,,,,,,,,,,,,,,,,,,,,,,,,,,,,,,,,,,,
10992107,10992107,VENTA DE PESCADO SIN NOMBRE,,CARRETERA CARRETERA DEL GOLFO SN,ATASTA,Campeche,24326,,2024-11,Aquaculture Farm,Piscicultura en agua dulce,,,,,18.62141407,-92.05434832,Carmen,,,,,,,,,,,,,,,,,,,,,,,,,,,,,,,,,,,,,,,,,,,,,,,,,,,,,,,,,,,,,,,,,,,,,,,,,,,,,,,,,,
10371456,10371456,VENTA DE TILAPIA SIN NOMBRE,,CALLE 7 0 SN,HAMPOLOL,Campeche,,9811590428,2024-11,Aquaculture Farm,Piscicultura en agua dulce,,,,,19.92536049,-90.38823688,Campeche,,,,,,,,,,,,,,,,,,,,,,,,,,,,,,,,,,,,,,,,,,,,,,,,,,,,,,,,,,,,,,,,,,,,,,,,,,,,,,,,,,
9929232,9929232,VIVERO DE PESCADO SIN NOMBRE,,CALLE SALISTRAL SN,SAN ANTONIO CARDENAS,Campeche,24325,,2024-11,Aquaculture Farm,Piscicultura en agua dulce,,,,,18.61044672,-92.22642178,Carmen,,,,,,,,,,,,,,,,,,,,,,,,,,,,,,,,,,,,,,,,,,,,,,,,,,,,,,,,,,,,,,,,,,,,,,,,,,,,,,,,,,
11782142,11782142,ABS MEXICO,,BOULEVARD INDEPENDENCIA 746 9 Int. 6,NUEVA LOS ANGELES,Coahuila de Zaragoza,27140,,2025-04,Farm / Breeder,Servicios relacionados con la cría y explotación de animales,ABS MEXICO SA DE CV,,,,25.55456405,-103.44092207,Torreón,,,,,,,,,,,,,,,,,,,,,,,,,,,,,,,,,,,,,,,,,,,,,,,,,,,,,,,,,,,,,,,,,,,,,,,,,,,,,,,,,,
11831620,11831620,ABS MEXICO,,BOULEVARD INDEPENDENCIA 746 3 Int. 12,NUEVA LOS ANGELES,Coahuila de Zaragoza,27140,,2025-04,Farm / Breeder,Servicios relacionados con la cría y explotación de animales,ABS MEXICO SA DE CV,,,,25.55456405,-103.44092207,Torreón,,,,,,,,,,,,,,,,,,,,,,,,,,,,,,,,,,,,,,,,,,,,,,,,,,,,,,,,,,,,,,,,,,,,,,,,,,,,,,,,,,
279368,279368,ALTA GENETICS DE MEXICO COMERCIALIZACION DE SEMEN BOVINO,,CALLE FRANCISCO DE FIGUEROA 403 2 Int. 2,EL FRENO,Coahuila de Zaragoza,27018,,2014-12,Farm / Breeder,Servicios relacionados con la cría y explotación de animales,ALTA GENETCSA DE MEXICO S DE RL DE CV,,,,25.57800858,-103.40567256,Torreón,,,,,,,,,,,,,,,,,,,,,,,,,,,,,,,,,,,,,,,,,,,,,,,,,,,,,,,,,,,,,,,,,,,,,,,,,,,,,,,,,,
6168789,6168789,CENTRO ACUICOLA LA ROSA,,CALLE NINGUNO 0 SN,LA ROSA,Coahuila de Zaragoza,,8441844791,2014-12,Aquaculture Farm,Piscicultura en agua dulce,CENTRO ACUICOLA LA ROSA,,,,25.5139,-101.374,General Cepeda,,,,,,,,,,,,,,,,,,,,,,,,,,,,,,,,,,,,,,,,,,,,,,,,,,,,,,,,,,,,,,,,,,,,,,,,,,,,,,,,,,
9296495,9296495,CIA PRESTADORA DE SERVICIOS,,BOULEVARD DE LA SENDA 317 Int. 0,RESIDENCIAL SENDEROS,Coahuila de Zaragoza,27018,,2020-11,Farm / Breeder,Servicios relacionados con la cría y explotación de animales,CIA PRESTADORA DE SERVICIOS SA DE CV,,,,25.61713289,-103.3918892,Torreón,,,,,,,,,,,,,,,,,,,,,,,,,,,,,,,,,,,,,,,,,,,,,,,,,,,,,,,,,,,,,,,,,,,,,,,,,,,,,,,,,,
11844669,11844669,GRANJA ACUICOLA EL CAPRICHO,,OTRO(ESPECIFIQUE) BRECHA 0 DOMICILIO CONOCIDO,EL CAPRICHO,Coahuila de Zaragoza,,,2025-05,Aquaculture Farm,Piscicultura en agua dulce,,,,,28.52384361,-100.9737664,Zaragoza,,,,,,,,,,,,,,,,,,,,,,,,,,,,,,,,,,,,,,,,,,,,,,,,,,,,,,,,,,,,,,,,,,,,,,,,,,,,,,,,,,
8789611,8789611,PISCICULTURA EN AGUA DULCE SIN NOMBRE,,CALLE NINGUNO 1,EL MESTEÑO,Coahuila de Zaragoza,,4611230738,2019-11,Aquaculture Farm,Piscicultura en agua dulce,,,,,25.53795596,-101.8694281,Parras,,,,,,,,,,,,,,,,,,,,,,,,,,,,,,,,,,,,,,,,,,,,,,,,,,,,,,,,,,,,,,,,,,,,,,,,,,,,,,,,,,
9045903,9045903,PISCICULTURA EN AGUA DULCE SIN NOMBRE,,CALLE AGUA PRIETA 2630,TEOTIHUACAN PARTE BAJA,Coahuila de Zaragoza,,8771010523,2019-11,Aquaculture Farm,Piscicultura en agua dulce,,,,,29.33543965,-100.94738178,Acuña,,,,,,,,,,,,,,,,,,,,,,,,,,,,,,,,,,,,,,,,,,,,,,,,,,,,,,,,,,,,,,,,,,,,,,,,,,,,,,,,,,
11844969,11844969,PISCICULTURA EN AGUA DULCE SIN NOMBRE,,CALLE NINGUNO 1,JALPA,Coahuila de Zaragoza,,4611230739,2025-05,Aquaculture Farm,Piscicultura en agua dulce,,,,,25.55325409,-101.7699441,General Cepeda,,,,,,,,,,,,,,,,,,,,,,,,,,,,,,,,,,,,,,,,,,,,,,,,,,,,,,,,,,,,,,,,,,,,,,,,,,,,,,,,,,
8887554,8887554,PISCICULTURA EN AGUA DULCE SIN NOMBRE,,CARRETERA NINGUNO 1,BELLA UNION,Coahuila de Zaragoza,,8442119322,2019-11,Aquaculture Farm,Piscicultura en agua dulce,,,,,25.43727153,-100.81227039,Arteaga,,,,,,,,,,,,,,,,,,,,,,,,,,,,,,,,,,,,,,,,,,,,,,,,,,,,,,,,,,,,,,,,,,,,,,,,,,,,,,,,,,
8639645,8639645,"PISCICULTURA Y OTRA ACUICULTURA, EXCEPTO CAMARONICULTURA SIN NOMBRE",,CALLE CAMINO A MINA 5 MICARE 0 DOMICILIO CONOCIDO,EX-EJIDO NOTA DE ALEJO,Coahuila de Zaragoza,,,2019-11,Aquaculture Farm,Piscicultura en agua dulce,,,,,28.47274278,-100.6508489,Nava,,,,,,,,,,,,,,,,,,,,,,,,,,,,,,,,,,,,,,,,,,,,,,,,,,,,,,,,,,,,,,,,,,,,,,,,,,,,,,,,,,
8639646,8639646,RANCHO ACUICOLA EL SABINO,,OTRO(ESPECIFIQUE) CAMINO A RANCHO EL SABINO 0 SN,RANCHO EL SABINO,Coahuila de Zaragoza,,8621016839,2019-11,Aquaculture Farm,Piscicultura en agua dulce,,,,,28.41543805,-100.9583881,Zaragoza,,,,,,,,,,,,,,,,,,,,,,,,,,,,,,,,,,,,,,,,,,,,,,,,,,,,,,,,,,,,,,,,,,,,,,,,,,,,,,,,,,
6168799,6168799,ACUACULTIVOS DEL REAL,,AUTOPISTA TECOMAN KM 1+500 (CERRO DE ORTEGA) KM 1+500,EL CHOCOCO,Colima,,3131020858,2010-07,Aquaculture Farm,Camaronicultura y acuicultura de otros crustáceos en agua salada,RUBEN REYES RAMIREZ SA DE CV,,,,18.77330056,-103.7796942,Tecomán,,,,,,,,,,,,,,,,,,,,,,,,,,,,,,,,,,,,,,,,,,,,,,,,,,,,,,,,,,,,,,,,,,,,,,,,,,,,,,,,,,
6168954,6168954,ACUICOLA EL BAGRE SPR DE RL,,OTRO(ESPECIFIQUE) NINGUNO KM 8800,ACUICOLA EL BAGRE,Colima,,3131020910,2010-07,Aquaculture Farm,Camaronicultura y acuicultura de otros crustáceos en agua dulce,ACUICOLA EL BAGRE S DE RL DE CV,,,,18.82648028,-103.8980594,Tecomán,,,,,,,,,,,,,,,,,,,,,,,,,,,,,,,,,,,,,,,,,,,,,,,,,,,,,,,,,,,,,,,,,,,,,,,,,,,,,,,,,,
6168955,6168955,AGROACUICOLA EL TRIANGULO,,CALLE ELIAS ZAMORA VERDUZCO 183 Int. 0,SAN JOSE,Colima,,,2010-07,Aquaculture Farm,Piscicultura en agua dulce,,,,,18.89049628,-103.87897259,Tecomán,,,,,,,,,,,,,,,,,,,,,,,,,,,,,,,,,,,,,,,,,,,,,,,,,,,,,,,,,,,,,,,,,,,,,,,,,,,,,,,,,,
11802135,11802135,AMENAC,,CALLE Javier Mina 401,CENTRO,Colima,28110,,2025-04,Farm / Breeder,Servicios relacionados con la cría y explotación de animales,ASOCIACION MEXICANA DE EVALUADORES DE LA NORMATIVIDAD AC,,,,18.91716494,-103.87578078,Tecomán,,,,,,,,,,,,,,,,,,,,,,,,,,,,,,,,,,,,,,,,,,,,,,,,,,,,,,,,,,,,,,,,,,,,,,,,,,,,,,,,,,
6168949,6168949,AQUAFRUTAS,,OTRO(ESPECIFIQUE) NINGUNO 0 DOMICILIO CONOCIDO,EL LAUREL,Colima,,3121834883,2010-07,Aquaculture Farm,Camaronicultura y acuicultura de otros crustáceos en agua dulce,AQUAFRUTAS,,,,18.80114917,-103.78363139,Tecomán,,,,,,,,,,,,,,,,,,,,,,,,,,,,,,,,,,,,,,,,,,,,,,,,,,,,,,,,,,,,,,,,,,,,,,,,,,,,,,,,,,
8704419,8704419,CAMARON GRANJERO,,OTRO(ESPECIFIQUE) NINGUNO 0 DOMICILIO CONOCIDO,EL COCO,Colima,,3121020910,2019-11,Aquaculture Farm,Camaronicultura y acuicultura de otros crustáceos en agua dulce,CAMARON GRANJERO S DE RL DE CV,,,,18.81902806,-103.88195639,Tecomán,,,,,,,,,,,,,,,,,,,,,,,,,,,,,,,,,,,,,,,,,,,,,,,,,,,,,,,,,,,,,,,,,,,,,,,,,,,,,,,,,,
6168985,6168985,CENTRO ACUICOLA JALA,,OTRO(ESPECIFIQUE) NINGUNO 0 DOMICILIO CONOCIDO,MADRID,Colima,28910,,2010-07,Aquaculture Farm,Piscicultura en agua dulce,CENTRO ACUICOLA JALA,,,,19.11163306,-103.8847406,Tecomán,,,,,,,,,,,,,,,,,,,,,,,,,,,,,,,,,,,,,,,,,,,,,,,,,,,,,,,,,,,,,,,,,,,,,,,,,,,,,,,,,,
11844964,11844964,CENTRO ACUICOLA JAVIER HERNANDEZ ARIAS,,CARRETERA MANZANILLO MINATITLAN 1,LOCALIDAD LOS PINITOS,Colima,,,2025-05,Aquaculture Farm,Piscicultura en agua dulce,GRUPO SERVICIOS TURISTICOS RURALES S DE RL,,,,19.25083333,-104.1761111,Manzanillo,,,,,,,,,,,,,,,,,,,,,,,,,,,,,,,,,,,,,,,,,,,,,,,,,,,,,,,,,,,,,,,,,,,,,,,,,,,,,,,,,,
10641339,10641339,COCODRILARIO TECOMAN,,OTRO(ESPECIFIQUE) ALCUZAHUE 0 DOMICILIO CONOCIDO,LAGUNA COLORADA,Colima,,,2024-11,Aquaculture Farm,Otra acuicultura,GRANJA DE COCODRILOS LA COLORADA SOCIEDAD DE RESPONSABILIDAD LIMITADA MICROINDUSTRIAL S DE RL MI SC DE RL,,,,18.91333333,-103.7852778,Tecomán,,,,,,,,,,,,,,,,,,,,,,,,,,,,,,,,,,,,,,,,,,,,,,,,,,,,,,,,,,,,,,,,,,,,,,,,,,,,,,,,,,
9974247,9974247,COOPERATIVA SIN NOMBRE,,CALLE RIO LERMA SN,PUNTA CHICA,Colima,28240,,2024-11,Aquaculture Farm,Piscicultura en agua salada,JUAN MEJIA ARAIZA SC DE RL DE CV,,,,19.04794983,-104.30110291,Manzanillo,,,,,,,,,,,,,,,,,,,,,,,,,,,,,,,,,,,,,,,,,,,,,,,,,,,,,,,,,,,,,,,,,,,,,,,,,,,,,,,,,,
7759575,7759575,CORPORATIVO DE PRODUCCION ACUICOLA BUENAVENTURA SPR DE RL DE CV,,OTRO(ESPECIFIQUE) SAN BUENAVENTURA 0 DOMICILIO CONOCIDO,LOS CORRALES,Colima,,3143367102,2019-11,Aquaculture Farm,Piscicultura en agua dulce,CORPORATIVO DE PRODUCCION ACUICOLA BUENAVENTURA SC DE RL,,,,19.02898667,-104.2099958,Manzanillo,,,,,,,,,,,,,,,,,,,,,,,,,,,,,,,,,,,,,,,,,,,,,,,,,,,,,,,,,,,,,,,,,,,,,,,,,,,,,,,,,,
11845180,11845180,EL BORDO,,CALLE Ninguno 1,IXTLAHUCAN,Colima,,,2025-05,Aquaculture Farm,Piscicultura en agua dulce,,,,,18.96829632,-103.69180206,Ixtlahuacán,,,,,,,,,,,,,,,,,,,,,,,,,,,,,,,,,,,,,,,,,,,,,,,,,,,,,,,,,,,,,,,,,,,,,,,,,,,,,,,,,,
11845133,11845133,EL MEZCALITO,,OTRO(ESPECIFIQUE) A LA PIEDRA ENCAMPANADA 0 DOMICILIO CONOCIDO,EL MEZCALITO,Colima,,3121174415,2025-05,Aquaculture Farm,Piscicultura en agua dulce,,,,,19.15112222,-103.8721544,Coquimatlán,,,,,,,,,,,,,,,,,,,,,,,,,,,,,,,,,,,,,,,,,,,,,,,,,,,,,,,,,,,,,,,,,,,,,,,,,,,,,,,,,,
6168965,6168965,EL MIXCOATE SPR DE RL,,OTRO(ESPECIFIQUE) NINGUNO 0 DOMICILIO CONOCIDO,EL MIXCOATE,Colima,,3121313701,2010-07,Aquaculture Farm,Piscicultura en agua dulce,EL MIXCOATE SA DE CV,,,,19.32602722,-103.9453367,Villa de Álvarez,,,,,,,,,,,,,,,,,,,,,,,,,,,,,,,,,,,,,,,,,,,,,,,,,,,,,,,,,,,,,,,,,,,,,,,,,,,,,,,,,,
6168947,6168947,EL SALVADOR,,CARRETERA TECOMAN A CERRO DE ORTEGA KM 12+500 KM 12+500,EL SALVADOR,Colima,,3133290145,2010-07,Aquaculture Farm,Camaronicultura y acuicultura de otros crustáceos en agua dulce,OCHOA MENDOZA HERMANOS,,,,18.79917389,-103.7974236,Tecomán,,,,,,,,,,,,,,,,,,,,,,,,,,,,,,,,,,,,,,,,,,,,,,,,,,,,,,,,,,,,,,,,,,,,,,,,,,,,,,,,,,
6168895,6168895,ESC SEC TEC NO 4 GUILLERMO URIBE BAZAN TM,,AVENIDA PRIMAVERAS 1,VALLE DE LAS GARZAS,Colima,28219,,2010-07,Aquaculture Farm,Piscicultura en agua dulce,ESCUELA SECUNDARIA TECNICA N4 GUILLERMO URIBE BAZAN,,,,19.09288399,-104.3004828,Manzanillo,,,,,,,,,,,,,,,,,,,,,,,,,,,,,,,,,,,,,,,,,,,,,,,,,,,,,,,,,,,,,,,,,,,,,,,,,,,,,,,,,,
11845179,11845179,ESTANQUES PRADERAS Y FLORES,,CALLE Ninguno 0 SN Int. 0 SN,RANCHO EL COCO,Colima,28134,3123040600,2025-05,Aquaculture Farm,Camaronicultura y acuicultura de otros crustáceos en agua salada,ESTANQUES PRADERAS Y FLORES SP DE RL S DE RL,,,,18.81902806,-103.88195639,Tecomán,,,,,,,,,,,,,,,,,,,,,,,,,,,,,,,,,,,,,,,,,,,,,,,,,,,,,,,,,,,,,,,,,,,,,,,,,,,,,,,,,,
6168911,6168911,FACULTAD DE CIENCIAS MARINAS,,CALLE NINGUNO 1,EL NARANJO,Colima,,,2010-07,Aquaculture Farm,Piscicultura en agua dulce,FACULTAD DE CIENCIAS MARINAS,,,,19.12517135,-104.402189,Manzanillo,,,,,,,,,,,,,,,,,,,,,,,,,,,,,,,,,,,,,,,,,,,,,,,,,,,,,,,,,,,,,,,,,,,,,,,,,,,,,,,,,,
6168966,6168966,GRANJA ACUICOLA CANOITAS,,OTRO(ESPECIFIQUE) ULTIMO RANCHO A LA DERECHA KM 9,EL COLOMO-CALLEJON DE LA POCHOTA,Colima,,3141022301,2010-07,Aquaculture Farm,Piscicultura en agua salada,,,,,19.01325389,-104.224035,Manzanillo,,,,,,,,,,,,,,,,,,,,,,,,,,,,,,,,,,,,,,,,,,,,,,,,,,,,,,,,,,,,,,,,,,,,,,,,,,,,,,,,,,
8704454,8704454,GRANJA ACUICOLA EL CHUPADERO,,CARRETERA CARRETERA AL CHUPADERO 0 SN,CHUPADERO,Colima,,3133290145,2019-11,Aquaculture Farm,Camaronicultura y acuicultura de otros crustáceos en agua dulce,ACUICOLA EL CHUPADERO,,,,18.75485,-103.8100889,Tecomán,,,,,,,,,,,,,,,,,,,,,,,,,,,,,,,,,,,,,,,,,,,,,,,,,,,,,,,,,,,,,,,,,,,,,,,,,,,,,,,,,,
8806082,8806082,GRANJA ACUICOLA LA VIRGENCITA,,CARRETERA A PASCALES 0 DOMICILIO CONOCIDO,LA VIRGENCITA,Colima,,3131194154,2019-11,Aquaculture Farm,Piscicultura en agua dulce,,,,,18.90305555,-103.9047222,Tecomán,,,,,,,,,,,,,,,,,,,,,,,,,,,,,,,,,,,,,,,,,,,,,,,,,,,,,,,,,,,,,,,,,,,,,,,,,,,,,,,,,,
8704395,8704395,GRANJA ACUICOLA LASPRO ACUACULTURA,,OTRO(ESPECIFIQUE) CAMINO HACIA EL RANCHO EL CHOCOCO 0 DOMICILIO CONOCIDO,LAURELES,Colima,,3337916047,2019-11,Aquaculture Farm,Camaronicultura y acuicultura de otros crustáceos en agua dulce,JUAN ENRIQUE LAZARINI RUIZ,,,,18.80114917,-103.7836314,Tecomán,,,,,,,,,,,,,,,,,,,,,,,,,,,,,,,,,,,,,,,,,,,,,,,,,,,,,,,,,,,,,,,,,,,,,,,,,,,,,,,,,,
11845166,11845166,GRANJA ACUICOLA SIN NOMBRE,,CALLE Ninguno 1,RANCHO DE SOL A SOL,Colima,28420,,2025-05,Aquaculture Farm,Piscicultura en agua dulce,,,,,19.14505333,-103.88500417,Coquimatlán,,,,,,,,,,,,,,,,,,,,,,,,,,,,,,,,,,,,,,,,,,,,,,,,,,,,,,,,,,,,,,,,,,,,,,,,,,,,,,,,,,
11845167,11845167,GRANJA DE TILAPIA SIN NOMBRE,,CALLE Ninguno 1,LA BECERRERA,Colima,,,2025-05,Aquaculture Farm,Piscicultura en agua dulce,,,,,19.45314766,-103.7165916,Comala,,,,,,,,,,,,,,,,,,,,,,,,,,,,,,,,,,,,,,,,,,,,,,,,,,,,,,,,,,,,,,,,,,,,,,,,,,,,,,,,,,
6168953,6168953,GRANJA LA BAHIA DREN ZANJA PRIETA,,OTRO(ESPECIFIQUE) ZANJA PRIETA 0 DOMICILIO CONOCIDO,ZANJA PRIETA,Colima,,3133290145,2010-07,Aquaculture Farm,Camaronicultura y acuicultura de otros crustáceos en agua dulce,GRANJA LA BAHIA DREN ZANJA PRIETA S DE RL DE CV,,,,18.78736194,-103.78454111,Tecomán,,,,,,,,,,,,,,,,,,,,,,,,,,,,,,,,,,,,,,,,,,,,,,,,,,,,,,,,,,,,,,,,,,,,,,,,,,,,,,,,,,
11844740,11844740,GRANJA LOLITA,,CALLE COLIMA 0 SN,EL CHICAL,Colima,,,2025-05,Aquaculture Farm,Piscicultura en agua dulce,,,,,19.23527089,-103.8479977,Coquimatlán,,,,,,,,,,,,,,,,,,,,,,,,,,,,,,,,,,,,,,,,,,,,,,,,,,,,,,,,,,,,,,,,,,,,,,,,,,,,,,,,,,
9025678,9025678,GRUPO ACUICOLA MEXICANO,,OTRO(ESPECIFIQUE) LOTE 0 SN Int. 0 SN,CHANILAMA,Colima,,6221115544,2019-11,Aquaculture Farm,Camaronicultura y acuicultura de otros crustáceos en agua dulce,GRANJAS MARINAS DE SINALOA SA DE CV,,,,18.78485528,-103.8505303,Tecomán,,,,,,,,,,,,,,,,,,,,,,,,,,,,,,,,,,,,,,,,,,,,,,,,,,,,,,,,,,,,,,,,,,,,,,,,,,,,,,,,,,
6168815,6168815,GRUPO PESQUERO LIZAMA,,OTRO(ESPECIFIQUE) NINGUNO 0 DOMICILIO CONOCIDO,EL PEDREGAL,Colima,,3123207381,2014-12,Aquaculture Farm,Piscicultura en agua dulce,,,,,19.30884083,-103.7930172,Villa de Álvarez,,,,,,,,,,,,,,,,,,,,,,,,,,,,,,,,,,,,,,,,,,,,,,,,,,,,,,,,,,,,,,,,,,,,,,,,,,,,,,,,,,
8949000,8949000,LA BASCULA,,AVENIDA CAMINO REAL 551,BAYARDO,Colima,28934,3131087642,2019-11,Farm / Breeder,Servicios relacionados con la cría y explotación de animales,PARRA AGROPRODUCTOS SA DE CV,,,,18.9448431,-103.92018539,Tecomán,,,,,,,,,,,,,,,,,,,,,,,,,,,,,,,,,,,,,,,,,,,,,,,,,,,,,,,,,,,,,,,,,,,,,,,,,,,,,,,,,,
10786223,10786223,LAGUNA DE ALCUZAHUE COOPERATIVA,,OTRO(ESPECIFIQUE) NINGUNO 0 DOMICILIO CONOCIDO,LAGUNA DE ALCUZAHUE COOPERATIVA,Colima,,,2024-11,Aquaculture Farm,Otra acuicultura,SOCIEDADCOOPERATIVA DE PRODUCCION PESQUERALAGUNA DE ALCUZAHUE SC DE RL SC DE RL DE CV,,,,18.91666667,-103.7822222,Tecomán,,,,,,,,,,,,,,,,,,,,,,,,,,,,,,,,,,,,,,,,,,,,,,,,,,,,,,,,,,,,,,,,,,,,,,,,,,,,,,,,,,
8908819,8908819,LAGUNA LOS OCOTES,,OTRO(ESPECIFIQUE) NINGUNO 0 DOMICILIO CONOCIDO,EL GUAYABAL,Colima,,3121886201,2019-11,Aquaculture Farm,Piscicultura en agua dulce,,,,,19.46654917,-103.6962969,Comala,,,,,,,,,,,,,,,,,,,,,,,,,,,,,,,,,,,,,,,,,,,,,,,,,,,,,,,,,,,,,,,,,,,,,,,,,,,,,,,,,,
11844614,11844614,MORADA DE AGUA BRAVA,,OTRO(ESPECIFIQUE) LOTE 0 DOMICILIO CONOCIDO,EL COCO,Colima,,3121113436,2025-05,Aquaculture Farm,Camaronicultura y acuicultura de otros crustáceos en agua dulce,MORADA DE AGUA BRAVA,,,,18.81902806,-103.88195639,Tecomán,,,,,,,,,,,,,,,,,,,,,,,,,,,,,,,,,,,,,,,,,,,,,,,,,,,,,,,,,,,,,,,,,,,,,,,,,,,,,,,,,,
11040036,11040036,OFICINA NORMICH,,CALLE REVOLUCION 371 C,CENTRO,Colima,28100,,2024-11,Farm / Breeder,Servicios relacionados con la cría y explotación de animales,NORMICH AC,,,,18.9093178,-103.86823146,Tecomán,,,,,,,,,,,,,,,,,,,,,,,,,,,,,,,,,,,,,,,,,,,,,,,,,,,,,,,,,,,,,,,,,,,,,,,,,,,,,,,,,,
8251139,8251139,PESCADORES MARICULTORES Y ACUICULTORES DE CAMPOS,,CALLE Marciano Ortega 13,CAMPOS,Colima,28809,3141014219,2019-11,Aquaculture Farm,Camaronicultura y acuicultura de otros crustáceos en agua salada,PESCADORES MARICULTORES Y ACUICULTORES DE CAMPOS S DE RL,,,,19.02453433,-104.31204526,Manzanillo,,,,,,,,,,,,,,,,,,,,,,,,,,,,,,,,,,,,,,,,,,,,,,,,,,,,,,,,,,,,,,,,,,,,,,,,,,,,,,,,,,
11845172,11845172,PISCICULTURA EN AGUA DULCE SIN NOMBRE,,CALLE Los Fresnos 0,LAS JOYITAS,Colima,28965,,2025-05,Aquaculture Farm,Piscicultura en agua dulce,,,,,19.33247848,-103.67965009,Villa de Álvarez,,,,,,,,,,,,,,,,,,,,,,,,,,,,,,,,,,,,,,,,,,,,,,,,,,,,,,,,,,,,,,,,,,,,,,,,,,,,,,,,,,
11845175,11845175,PISCICULTURA EN AGUA DULCE SIN NOMBRE,,CALLE Paseo de los Manzanos 91 Int. 0,VALLE DE LAS HUERTAS,Colima,28400,,2025-05,Aquaculture Farm,Piscicultura en agua dulce,,,,,19.21399544,-103.81015296,Coquimatlán,,,,,,,,,,,,,,,,,,,,,,,,,,,,,,,,,,,,,,,,,,,,,,,,,,,,,,,,,,,,,,,,,,,,,,,,,,,,,,,,,,
9226560,9226560,PISCICULTURA EN AGUA DULCE SIN NOMBRE,,CALLE FRANCISCO I MADERO 0 SN,PEDRO VALENCIA LARIOS,Colima,,3121409041,2020-04,Aquaculture Farm,Piscicultura en agua dulce,,,,,19.1277062,-103.8557331,Coquimatlán,,,,,,,,,,,,,,,,,,,,,,,,,,,,,,,,,,,,,,,,,,,,,,,,,,,,,,,,,,,,,,,,,,,,,,,,,,,,,,,,,,
6168935,6168935,PISCICULTURA EN AGUA DULCE SIN NOMBRE,,OTRO(ESPECIFIQUE) NINGUNO KM 299,SAN BUENAVENTURA,Colima,,3141245227,2010-07,Aquaculture Farm,Piscicultura en agua dulce,,,,,19.01209906,-104.1604431,Manzanillo,,,,,,,,,,,,,,,,,,,,,,,,,,,,,,,,,,,,,,,,,,,,,,,,,,,,,,,,,,,,,,,,,,,,,,,,,,,,,,,,,,
11845177,11845177,PISCICULTURA EN AGUA DULCE SIN NOMBRE,,CALLE Ninguno 31 Int. 0,LA NOGALERA,Colima,28460,,2025-05,Aquaculture Farm,Piscicultura en agua dulce,,,,,19.39189382,-103.70602774,Comala,,,,,,,,,,,,,,,,,,,,,,,,,,,,,,,,,,,,,,,,,,,,,,,,,,,,,,,,,,,,,,,,,,,,,,,,,,,,,,,,,,
11845171,11845171,PISCICULTURA EN AGUA DULCE SIN NOMBRE,,PRIVADA Real de Bugambilias 80,JARDINES DE BUGAMBILIAS,Colima,28978,3121321848,2025-05,Aquaculture Farm,Piscicultura en agua dulce,,,,,19.27903152,-103.73213885,Villa de Álvarez,,,,,,,,,,,,,,,,,,,,,,,,,,,,,,,,,,,,,,,,,,,,,,,,,,,,,,,,,,,,,,,,,,,,,,,,,,,,,,,,,,
11845176,11845176,PISCICULTURA EN AGUA DULCE SIN NOMBRE,,CALLE Adolfo López Mateos 8,ESTAPILLA,Colima,28655,,2025-05,Aquaculture Farm,Piscicultura en agua dulce,,,,,18.97648587,-103.53110646,Colima,,,,,,,,,,,,,,,,,,,,,,,,,,,,,,,,,,,,,,,,,,,,,,,,,,,,,,,,,,,,,,,,,,,,,,,,,,,,,,,,,,
11845169,11845169,PISCICULTURA EN AGUA DULCE SIN NOMBRE,,CALLE Ninguno 0 SN,LA SIDRA,Colima,,3123172179,2025-05,Aquaculture Farm,Piscicultura en agua dulce,,,,,19.25069568,-103.98532729,Coquimatlán,,,,,,,,,,,,,,,,,,,,,,,,,,,,,,,,,,,,,,,,,,,,,,,,,,,,,,,,,,,,,,,,,,,,,,,,,,,,,,,,,,
11845174,11845174,PISCICULTURA EN AGUA DULCE SIN NOMBRE,,CALLE Álvaro Obregón 28,QUESERIA,Colima,28510,3121096781,2025-05,Aquaculture Farm,Piscicultura en agua dulce,,,,,19.38595315,-103.57341512,Cuauhtémoc,,,,,,,,,,,,,,,,,,,,,,,,,,,,,,,,,,,,,,,,,,,,,,,,,,,,,,,,,,,,,,,,,,,,,,,,,,,,,,,,,,
11845168,11845168,PISCICULTURA EN AGUA DULCE SIN NOMBRE,,CALLE Manuel Abasolo 208,CENTRO,Colima,28000,3121192493,2025-05,Aquaculture Farm,Piscicultura en agua dulce,,,,,19.23845785,-103.72641089,Colima,,,,,,,,,,,,,,,,,,,,,,,,,,,,,,,,,,,,,,,,,,,,,,,,,,,,,,,,,,,,,,,,,,,,,,,,,,,,,,,,,,
11845170,11845170,PISCICULTURA EN AGUA DULCE SIN NOMBRE,,CALLE Ninguno 0 SN,EL ALGODONAL,Colima,28414,3125947553,2025-05,Aquaculture Farm,Piscicultura en agua dulce,,,,,19.23387753,-103.95886827,Coquimatlán,,,,,,,,,,,,,,,,,,,,,,,,,,,,,,,,,,,,,,,,,,,,,,,,,,,,,,,,,,,,,,,,,,,,,,,,,,,,,,,,,,
11845173,11845173,PISCICULTURA EN AGUA DULCE SIN NOMBRE,,CALLE Álvaro Obregón 24,QUESERIA,Colima,28510,,2025-05,Aquaculture Farm,Piscicultura en agua dulce,,,,,19.38607656,-103.57319213,Cuauhtémoc,,,,,,,,,,,,,,,,,,,,,,,,,,,,,,,,,,,,,,,,,,,,,,,,,,,,,,,,,,,,,,,,,,,,,,,,,,,,,,,,,,
6168817,6168817,PISCICULTURA EN AGUA DULCE SIN NOMBRE,,CALLE NINGUNO 0 SN,LA BECERRERA,Colima,,,2014-12,Aquaculture Farm,Piscicultura en agua dulce,,,,,19.45312066,-103.71665081,Comala,,,,,,,,,,,,,,,,,,,,,,,,,,,,,,,,,,,,,,,,,,,,,,,,,,,,,,,,,,,,,,,,,,,,,,,,,,,,,,,,,,
11845178,11845178,PISCICULTURA EN AGUA SALADA SIN NOMBRE,,CALLE Libertad 167,JARDINES DE LA CORREGIDORA,Colima,28030,3121022039,2025-05,Aquaculture Farm,Piscicultura en agua salada,,,,,19.25064907,-103.72701856,Colima,,,,,,,,,,,,,,,,,,,,,,,,,,,,,,,,,,,,,,,,,,,,,,,,,,,,,,,,,,,,,,,,,,,,,,,,,,,,,,,,,,
8694065,8694065,PRODUCTORA VALLE VERDE,,CARRETERA CERRO DE ORTEGA 0 SN,VALLE VERDE,Colima,,3133290145,2019-11,Aquaculture Farm,Camaronicultura y acuicultura de otros crustáceos en agua dulce,OCHOA MENDOZA HERMANOS S DE RL DE CV,,,,18.79231,-103.78221194,Tecomán,,,,,,,,,,,,,,,,,,,,,,,,,,,,,,,,,,,,,,,,,,,,,,,,,,,,,,,,,,,,,,,,,,,,,,,,,,,,,,,,,,
8737519,8737519,PRODUCTOS ACUICOLAS EN SU MESA 365,,CARRETERA MANZANILLO CAMPOS 1,PRODUCTOS ACUICOLAS EN SU MESA 365,Colima,,3143520590,2019-11,Aquaculture Farm,Camaronicultura y acuicultura de otros crustáceos en agua salada,PRODUCTOS ACUICOLAS EN SU MESA 365 S DE RL,,,,19.03323569,-104.3303175,Manzanillo,,,,,,,,,,,,,,,,,,,,,,,,,,,,,,,,,,,,,,,,,,,,,,,,,,,,,,,,,,,,,,,,,,,,,,,,,,,,,,,,,,
6168934,6168934,RANCHO EL HUIZILACATE,,OTRO(ESPECIFIQUE) NINGUNO 1,COQUIMATLAN,Colima,,3121502996,2010-07,Aquaculture Farm,Camaronicultura y acuicultura de otros crustáceos en agua dulce,EL VIEJO ANTONIO SA DE CV,,,,19.17446389,-103.8154386,Coquimatlán,,,,,,,,,,,,,,,,,,,,,,,,,,,,,,,,,,,,,,,,,,,,,,,,,,,,,,,,,,,,,,,,,,,,,,,,,,,,,,,,,,
6168802,6168802,RANCHO TRINIDAD,,CARRETERA A LA ESPERANZA 0 DOMICILIO CONOCIDO,RANCHO TRINIDAD,Colima,,3125505499,2014-12,Aquaculture Farm,Piscicultura en agua dulce,,,,,19.18820167,-103.8448847,Coquimatlán,,,,,,,,,,,,,,,,,,,,,,,,,,,,,,,,,,,,,,,,,,,,,,,,,,,,,,,,,,,,,,,,,,,,,,,,,,,,,,,,,,
6168803,6168803,RIO GRANDE,,OTRO(ESPECIFIQUE) NINGUNO 0 DOMICILIO CONOCIDO,LOS GAVILANES,Colima,,3121082347,2014-12,Aquaculture Farm,Piscicultura en agua dulce,,,,,19.1764125,-103.8431072,Coquimatlán,,,,,,,,,,,,,,,,,,,,,,,,,,,,,,,,,,,,,,,,,,,,,,,,,,,,,,,,,,,,,,,,,,,,,,,,,,,,,,,,,,
8251205,8251205,SCPPA ACUICOLA ACUACULTORES DE LA LAGUNA DE CUYUTLAN,,CALLE Ninguno 25,LEONA VICARIO,Colima,,3141037914,2019-11,Aquaculture Farm,Camaronicultura y acuicultura de otros crustáceos en agua salada,SCPP Y ACUICOLA ACUACULTORES DE LA LAGUNA DE CUYUTLAN SC DE RL DE CV,,,,19.03273089,-104.33045914,Manzanillo,,,,,,,,,,,,,,,,,,,,,,,,,,,,,,,,,,,,,,,,,,,,,,,,,,,,,,,,,,,,,,,,,,,,,,,,,,,,,,,,,,
9421378,9421378,SUHUEVO,,OTRO(ESPECIFIQUE) CAMINO SACA COSECHA KM 2 0 DOMICILIO CONOCIDO,PALMILLAS,Colima,28521,,2023-11,Farm / Breeder,Servicios relacionados con la cría y explotación de animales,GRUPO INDUSTRIAL PROAVICOL,,,,19.35939183,-103.5480438,Cuauhtémoc,,,,,,,,,,,,,,,,,,,,,,,,,,,,,,,,,,,,,,,,,,,,,,,,,,,,,,,,,,,,,,,,,,,,,,,,,,,,,,,,,,
8908843,8908843,TANQUE LAS PALMITAS,,CARRETERA NINGUNO 0 DOMICILIO CONOCIDO,LOS AMIALES,Colima,,3121112431,2019-11,Aquaculture Farm,Piscicultura en agua dulce,,,,,19.16713639,-103.8343308,Coquimatlán,,,,,,,,,,,,,,,,,,,,,,,,,,,,,,,,,,,,,,,,,,,,,,,,,,,,,,,,,,,,,,,,,,,,,,,,,,,,,,,,,,
8147875,8147875,ACUACULTORES AQUA ALBAMAR,,CALLE Ninguno 1,EMBARCADERO APIC PAC,Chiapas,,9613489203,2019-11,Aquaculture Farm,Piscicultura en agua dulce,ACUACULTORES AQUA ALBAMAR SC DE RL DE CV,,,,17.05815692,-93.46440911,Ocozocoautla de Espinosa,,,,,,,,,,,,,,,,,,,,,,,,,,,,,,,,,,,,,,,,,,,,,,,,,,,,,,,,,,,,,,,,,,,,,,,,,,,,,,,,,,
8719062,8719062,ACUACULTORES BELLAMAR,,CALLE Ninguno 1,LOMA BONITA,Chiapas,,9611707657,2019-11,Aquaculture Farm,Piscicultura en agua dulce,ACUACULTORES BELLAMAR SC DE RL DE CV,,,,17.23579606,-93.61704503,Mezcalapa,,,,,,,,,,,,,,,,,,,,,,,,,,,,,,,,,,,,,,,,,,,,,,,,,,,,,,,,,,,,,,,,,,,,,,,,,,,,,,,,,,
8624372,8624372,ACUACULTORES DE LA MOJARRA KASKARUDA,,CALLE Ninguno 1,EL EMBARCADERO APIC PAC,Chiapas,,2228624311,2019-11,Aquaculture Farm,Piscicultura en agua dulce,ACUACULTORES DE LA MOJARRA KASKARUDA SC DE RL DE CV,,,,17.058205,-93.46390083,Ocozocoautla de Espinosa,,,,,,,,,,,,,,,,,,,,,,,,,,,,,,,,,,,,,,,,,,,,,,,,,,,,,,,,,,,,,,,,,,,,,,,,,,,,,,,,,,
11845184,11845184,ACUACULTORES EL RETAZO,,CALLE Ninguno 1,QUECHULA,Chiapas,29615,9613608886,2025-05,Aquaculture Farm,Piscicultura en agua dulce,ACUACULTORES EL RETAZO SC DE RL DE CV,,,,17.06015573,-93.40375494,Tecpatán,,,,,,,,,,,,,,,,,,,,,,,,,,,,,,,,,,,,,,,,,,,,,,,,,,,,,,,,,,,,,,,,,,,,,,,,,,,,,,,,,,
11845183,11845183,ACUACULTORES JAPAC-N,,CALLE Ninguno 1,MONTERREY BUENAVISTA POYOSPAC,Chiapas,29615,8443561695,2025-05,Aquaculture Farm,Piscicultura en agua dulce,ACUACULTORES JAPAC-N SC DE RL DE CV,,,,17.04128046,-93.3943864,Tecpatán,,,,,,,,,,,,,,,,,,,,,,,,,,,,,,,,,,,,,,,,,,,,,,,,,,,,,,,,,,,,,,,,,,,,,,,,,,,,,,,,,,
8542011,8542011,ACUACULTORES LA ESPERANZA DE APICPAC,,CALLE Ninguno 1,ELEMBARCADERO DE APIC PAC,Chiapas,29140,9614103761,2019-11,Aquaculture Farm,Piscicultura en agua dulce,ACUACULTORES LA ESPERANZA DE APICPAC SC DE RL DE CV,,,,17.058205,-93.46390083,Ocozocoautla de Espinosa,,,,,,,,,,,,,,,,,,,,,,,,,,,,,,,,,,,,,,,,,,,,,,,,,,,,,,,,,,,,,,,,,,,,,,,,,,,,,,,,,,
8656026,8656026,ACUACULTORES LA SELVA,,CALLE Ninguno 1,MONTE ALEGRE,Chiapas,,,2019-11,Aquaculture Farm,Piscicultura en agua dulce,ACUACULTORES LA SELVA SC DE RL DE CV,,,,17.058205,-93.46390083,Ocozocoautla de Espinosa,,,,,,,,,,,,,,,,,,,,,,,,,,,,,,,,,,,,,,,,,,,,,,,,,,,,,,,,,,,,,,,,,,,,,,,,,,,,,,,,,,
11844974,11844974,ACUACULTORES LOS HERMANOS GARCIA AGUILERA,,CALLE Ninguno 1,QUECHULA,Chiapas,29610,9681196478,2025-05,Aquaculture Farm,Piscicultura en agua dulce,ACUACULTORES LOS HERMANOS GARCIA AGUILERA SC DE RL DE CV,,,,17.06170284,-93.4054687,Tecpatán,,,,,,,,,,,,,,,,,,,,,,,,,,,,,,,,,,,,,,,,,,,,,,,,,,,,,,,,,,,,,,,,,,,,,,,,,,,,,,,,,,
8147925,8147925,ACUACULTORES LOS JIMENEZ DEL TRECE DE SEPTIEMBRE SC DE RL,,CALLE Ninguno 1,13 DE SEPTIEMBRE,Chiapas,,9613550060,2019-11,Aquaculture Farm,Piscicultura en agua dulce,ACUACULTORES LOS JIMENEZ DEL TRECE DE SEPTIEMBRE SC DE RL DE CV,,,,16.78423829,-93.42721088,Ocozocoautla de Espinosa,,,,,,,,,,,,,,,,,,,,,,,,,,,,,,,,,,,,,,,,,,,,,,,,,,,,,,,,,,,,,,,,,,,,,,,,,,,,,,,,,,
8836075,8836075,ACUACULTORES PERLA DORADA DE OSTUACAN,,OTRO(ESPECIFIQUE) NINGUNO 0 SN,ANTONIO LEON,Chiapas,,,2019-11,Aquaculture Farm,Piscicultura en agua dulce,ACUACULTORES PERLA DORADA DE OSTUACAN SC DE RL DE CV,,,,17.41071551,-93.4765893,Ostuacán,,,,,,,,,,,,,,,,,,,,,,,,,,,,,,,,,,,,,,,,,,,,,,,,,,,,,,,,,,,,,,,,,,,,,,,,,,,,,,,,,,
8656091,8656091,ACUACULTORES UNIDOS DE MALPASO,,CALLE Ninguno 1,MONTE ALEGRE,Chiapas,29600,,2019-11,Aquaculture Farm,Piscicultura en agua dulce,ACUACULTORES UNIDOS DE MALPASO SC DE RL DE CV,,,,16.78423829,-93.42721088,Ocozocoautla de Espinosa,,,,,,,,,,,,,,,,,,,,,,,,,,,,,,,,,,,,,,,,,,,,,,,,,,,,,,,,,,,,,,,,,,,,,,,,,,,,,,,,,,
11845217,11845217,ACUACULTURA DEL RIO NOVILLERO,,CALLE Ninguno 0 SN Int. 0 0,NUEVO GUADALUPE VICTORIA,Chiapas,30573,,2025-05,Aquaculture Farm,Piscicultura en agua dulce,BERSAIN SANCHEZ ANGEL AC,,,,15.50758854,-92.88051346,Mapastepec,,,,,,,,,,,,,,,,,,,,,,,,,,,,,,,,,,,,,,,,,,,,,,,,,,,,,,,,,,,,,,,,,,,,,,,,,,,,,,,,,,
11844602,11844602,ACUAGRANJAS DOS LAGOS MEZCALAPA,,CERRADA NINGUNO 0 SN,ACUAGRANJAS DOS LAGOS,Chiapas,,9612255845,2025-05,Aquaculture Farm,Piscicultura en agua dulce,ACUAGRANJAS DOS LAGOS SC DE RL DE CV,,,,17.16883104,-93.59536609,Mezcalapa,,,,,,,,,,,,,,,,,,,,,,,,,,,,,,,,,,,,,,,,,,,,,,,,,,,,,,,,,,,,,,,,,,,,,,,,,,,,,,,,,,
9457295,9457295,ACUAGRANJAS DOS LAGOS PEÑITAS EL MICO,,PRIVADA NINGUNO 0 SN Int. 0 SN,PEÑITAS EL MICO,Chiapas,,,2024-05,Aquaculture Farm,Piscicultura en agua dulce,ACUAGRANJAS DOS LAGOS SC DE RL,,,,17.46074694,-93.43490778,Ostuacán,,,,,,,,,,,,,,,,,,,,,,,,,,,,,,,,,,,,,,,,,,,,,,,,,,,,,,,,,,,,,,,,,,,,,,,,,,,,,,,,,,
412371,412371,ACUICOLA CAMPO VIEJO,,OTRO(ESPECIFIQUE) ARROYO 0 SN Int. 0 SN,CHICHIMA CONCEPCION,Chiapas,,,2014-12,Aquaculture Farm,Piscicultura en agua dulce,ACUICOLA CAMPO VIEJO SC DE RL DE CV,,,,16.21510433,-92.12343812,Comitán de Domínguez,,,,,,,,,,,,,,,,,,,,,,,,,,,,,,,,,,,,,,,,,,,,,,,,,,,,,,,,,,,,,,,,,,,,,,,,,,,,,,,,,,
11844916,11844916,ACUICOLA DE TILAPIA EL RETIRO,,CALLE NINGUNO 0 SN,LAS GOLONDRINAS,Chiapas,,,2025-05,Aquaculture Farm,Piscicultura en agua dulce,,,,,15.43238919,-92.65379575,Acacoyagua,,,,,,,,,,,,,,,,,,,,,,,,,,,,,,,,,,,,,,,,,,,,,,,,,,,,,,,,,,,,,,,,,,,,,,,,,,,,,,,,,,
8147873,8147873,ACUICOLA EMBARCADERO APIC PAC,,CALLE Ninguno 1,EL EMBARCADERO APIC PAC,Chiapas,29140,9612870684,2019-11,Aquaculture Farm,Piscicultura en agua dulce,ACUICOLA EMBARCADERO APIC PAC SC DE RL DE CV,,,,16.78423829,-93.42721088,Ocozocoautla de Espinosa,,,,,,,,,,,,,,,,,,,,,,,,,,,,,,,,,,,,,,,,,,,,,,,,,,,,,,,,,,,,,,,,,,,,,,,,,,,,,,,,,,
8838383,8838383,ACUICOLAS DEL CARMEN REFORMA,,CALLE NINGUNO 0 SN Int. 0 0,EL CARMEN,Chiapas,,9171175906,2019-11,Aquaculture Farm,Piscicultura en agua dulce,ACUICOLAS DEL CARMEN REFORMA SC DE RL DE CV,,,,17.89062934,-93.15869224,Reforma,,,,,,,,,,,,,,,,,,,,,,,,,,,,,,,,,,,,,,,,,,,,,,,,,,,,,,,,,,,,,,,,,,,,,,,,,,,,,,,,,,
6168162,6168162,ACUICULTURA COROZAL,,CALLE QUINTA PONIENTE SUR 0 SN,FRONTERA COROZAL,Chiapas,,,2014-12,Aquaculture Farm,Piscicultura en agua dulce,,,,,16.80857203,-90.89628446,Ocosingo,,,,,,,,,,,,,,,,,,,,,,,,,,,,,,,,,,,,,,,,,,,,,,,,,,,,,,,,,,,,,,,,,,,,,,,,,,,,,,,,,,
8719063,8719063,AGROPECUARIA Y ACUICOLA LOS ALEVINES,,CARRETERA DESVIO PUENTE CHIAPAS 1,PUENTE CHIAPAS,Chiapas,,9612287585,2019-11,Aquaculture Farm,Piscicultura en agua dulce,AGROPECUARIA Y ACUICOLA LOS ALEVINES SC DE RL DE CV,,,,17.18090521,-93.61722643,Mezcalapa,,,,,,,,,,,,,,,,,,,,,,,,,,,,,,,,,,,,,,,,,,,,,,,,,,,,,,,,,,,,,,,,,,,,,,,,,,,,,,,,,,
8656102,8656102,AGROPECUARIA Y ACUICOLA ROBERTO BARRIOS,,CALLE Ninguno 1,ROBERTO BARRIOS,Chiapas,,9682397429,2019-11,Aquaculture Farm,Camaronicultura y acuicultura de otros crustáceos en agua dulce,AGROPECUARIA Y ACUICOLA ROBERTO BARRIOS SC DE RL DE CV,,,,17.21970561,-93.56261321,Mezcalapa,,,,,,,,,,,,,,,,,,,,,,,,,,,,,,,,,,,,,,,,,,,,,,,,,,,,,,,,,,,,,,,,,,,,,,,,,,,,,,,,,,
490114,490114,ASOCIACION GANADERA LOCAL GENERAL RURAL DE ARRIAGA,,CALLE SEXTA SUR 0 SN,EJIDAL,Chiapas,30450,9666901340,2010-07,Farm / Breeder,Servicios relacionados con la cría y explotación de animales,JUAN ANTONIO ITURBE MANDUJANO AC,,,,16.22964616,-93.90841187,Arriaga,,,,,,,,,,,,,,,,,,,,,,,,,,,,,,,,,,,,,,,,,,,,,,,,,,,,,,,,,,,,,,,,,,,,,,,,,,,,,,,,,,
8056169,8056169,BASCULA GANADERA SIN NOMBRE,,CALLE NINGUNO 0 SN Int. 0,LINDA VISTA,Chiapas,30590,9181123547,2019-11,Farm / Breeder,Servicios relacionados con la cría y explotación de animales,,,,,15.34983514,-92.6813183,Acacoyagua,,,,,,,,,,,,,,,,,,,,,,,,,,,,,,,,,,,,,,,,,,,,,,,,,,,,,,,,,,,,,,,,,,,,,,,,,,,,,,,,,,
8656094,8656094,BIO WORLD PRODUCTS INC,,CALLE NINGUNO 0 SN,SAN ANTONIO,Chiapas,,9631901494,2019-11,Aquaculture Farm,Piscicultura en agua dulce,BIO-WORLD PRODUCTS INC SA DE CV,,,,16.15849698,-92.10445,Comitán de Domínguez,,,,,,,,,,,,,,,,,,,,,,,,,,,,,,,,,,,,,,,,,,,,,,,,,,,,,,,,,,,,,,,,,,,,,,,,,,,,,,,,,,
8054907,8054907,BODEGA DE LA COOPERATIVA DEL BARRIO MANUEL VELAZCO SUAREZ,,CALLE NINGUNO SN Int. 0,MANUEL VELASCO SUAREZ,Chiapas,30503,,2019-11,Aquaculture Farm,Camaronicultura y acuicultura de otros crustáceos en agua dulce,,,,,16.05417002,-93.87307804,Tonalá,,,,,,,,,,,,,,,,,,,,,,,,,,,,,,,,,,,,,,,,,,,,,,,,,,,,,,,,,,,,,,,,,,,,,,,,,,,,,,,,,,
8896124,8896124,CENTRO DE ACOPIO YOKAMANEGE,,CALLE 12 de Diciembre 9,GANADERA,Chiapas,,9613538907,2019-11,Aquaculture Farm,Piscicultura en agua dulce,CENTRO DE ACOPIO YOKAMANEGE,,,,17.1885191,-93.60661458,Mezcalapa,,,,,,,,,,,,,,,,,,,,,,,,,,,,,,,,,,,,,,,,,,,,,,,,,,,,,,,,,,,,,,,,,,,,,,,,,,,,,,,,,,
8541900,8541900,COMERCIALIZADORA Y CENTRO DE PRODUCCION ACUACULTIVO,,OTRO(ESPECIFIQUE) NINGUNO 1,CNS,Chiapas,,9933312629,2019-11,Aquaculture Farm,Piscicultura en agua dulce,COMERCIALIZADORA Y CENTRO DE PRODUCCION ACUACULTIVO SA DE CV,,,,17.14354475,-93.59311665,Mezcalapa,,,,,,,,,,,,,,,,,,,,,,,,,,,,,,,,,,,,,,,,,,,,,,,,,,,,,,,,,,,,,,,,,,,,,,,,,,,,,,,,,,
11845185,11845185,COOPERATIVA ACUICOLA MANTARRAYA,,CALLE Ninguno 1,LA CHINCUYA,Chiapas,29615,9681255150,2025-05,Aquaculture Farm,Piscicultura en agua dulce,COOPERATIVA ACUICOLA MANTARRAYA SC DE RL DE CV,,,,17.05976861,-93.40312601,Tecpatán,,,,,,,,,,,,,,,,,,,,,,,,,,,,,,,,,,,,,,,,,,,,,,,,,,,,,,,,,,,,,,,,,,,,,,,,,,,,,,,,,,
9623112,9623112,CORRAL DE ACOPIO SIN NOMBRE,,AVENIDA FRANCISCO SARABIA CENTRAL SUR 0 SN,JUAN BECERRA,Chiapas,30560,,2024-11,Farm / Breeder,Servicios relacionados con la cría y explotación de animales,,,,,15.429635,-92.90681516,Mapastepec,,,,,,,,,,,,,,,,,,,,,,,,,,,,,,,,,,,,,,,,,,,,,,,,,,,,,,,,,,,,,,,,,,,,,,,,,,,,,,,,,,
11845137,11845137,CRIA DE PESCADO SIN NOMBRE,,CALLE NINGUNO 128,TZISCAO,Chiapas,,5025306612,2025-05,Aquaculture Farm,Piscicultura en agua dulce,,,,,16.08175074,-91.66638264,La Trinitaria,,,,,,,,,,,,,,,,,,,,,,,,,,,,,,,,,,,,,,,,,,,,,,,,,,,,,,,,,,,,,,,,,,,,,,,,,,,,,,,,,,
9548891,9548891,CRIADERO DE PECES EL MANANTIAL,,OTRO(ESPECIFIQUE) NINGUNO 0 SN,LA LUCHA,Chiapas,,9161193135,2024-11,Aquaculture Farm,Piscicultura en agua dulce,,,,,17.50834403,-92.07127351,Palenque,,,,,,,,,,,,,,,,,,,,,,,,,,,,,,,,,,,,,,,,,,,,,,,,,,,,,,,,,,,,,,,,,,,,,,,,,,,,,,,,,,
9960605,9960605,CRIADERO DE PECES SIN NOMBRE,,OTRO(ESPECIFIQUE) NINGUNO 0 SN,SANTA ISABEL,Chiapas,,,2024-11,Aquaculture Farm,Piscicultura en agua dulce,,,,,17.49967111,-92.08878722,Palenque,,,,,,,,,,,,,,,,,,,,,,,,,,,,,,,,,,,,,,,,,,,,,,,,,,,,,,,,,,,,,,,,,,,,,,,,,,,,,,,,,,
9891096,9891096,CRIADERO DE PECES SIN NOMBRE,,OTRO(ESPECIFIQUE) NINGUNO 0 SN,LA LUCHA,Chiapas,,,2024-11,Aquaculture Farm,Piscicultura en agua dulce,,,,,17.50833361,-92.07132784,Palenque,,,,,,,,,,,,,,,,,,,,,,,,,,,,,,,,,,,,,,,,,,,,,,,,,,,,,,,,,,,,,,,,,,,,,,,,,,,,,,,,,,
10384184,10384184,CRIADERO DE PECES SIN NOMBRE,,OTRO(ESPECIFIQUE) NINGUNO 0 SN,SANTA ISABEL,Chiapas,,,2024-11,Aquaculture Farm,Piscicultura en agua dulce,,,,,17.49964194,-92.08876031,Palenque,,,,,,,,,,,,,,,,,,,,,,,,,,,,,,,,,,,,,,,,,,,,,,,,,,,,,,,,,,,,,,,,,,,,,,,,,,,,,,,,,,
11049824,11049824,CRIADERO DE PECES SIN NOMBRE,,OTRO(ESPECIFIQUE) NINGUNO 0 SN,LA LUCHA,Chiapas,,9163486033,2024-11,Aquaculture Farm,Piscicultura en agua dulce,,,,,17.50833301,-92.07131888,Palenque,,,,,,,,,,,,,,,,,,,,,,,,,,,,,,,,,,,,,,,,,,,,,,,,,,,,,,,,,,,,,,,,,,,,,,,,,,,,,,,,,,
10823659,10823659,CRIADERO DE PECES SIN NOMBRE,,OTRO(ESPECIFIQUE) NINGUNO 0 SN,SANTA ISABEL,Chiapas,,,2024-11,Aquaculture Farm,Piscicultura en agua dulce,,,,,17.49964423,-92.08879491,Palenque,,,,,,,,,,,,,,,,,,,,,,,,,,,,,,,,,,,,,,,,,,,,,,,,,,,,,,,,,,,,,,,,,,,,,,,,,,,,,,,,,,
11845085,11845085,DIEGO HERNANDEZ,,CALLE Ninguno 1,EL BANCO DE ARENA,Chiapas,29148,,2025-05,Aquaculture Farm,Piscicultura en agua dulce,,,,,17.05471278,-93.45582639,Ocozocoautla de Espinosa,,,,,,,,,,,,,,,,,,,,,,,,,,,,,,,,,,,,,,,,,,,,,,,,,,,,,,,,,,,,,,,,,,,,,,,,,,,,,,,,,,
8178773,8178773,EL DIAMANTE DE PLAYA LARGA,,CALLE Ninguno 2,PLAYA LARGA 1ERA SECCION,Chiapas,,9614809835,2019-11,Aquaculture Farm,Piscicultura en agua dulce,EL DIAMANTE DE PLAYA LARGA SC DE RL DE CV,,,,17.38423477,-93.45440998,Ostuacán,,,,,,,,,,,,,,,,,,,,,,,,,,,,,,,,,,,,,,,,,,,,,,,,,,,,,,,,,,,,,,,,,,,,,,,,,,,,,,,,,,
8823735,8823735,EL NARANJO DE SAN FRANCISCO UNINAJAB SPR DE RI,,CALLE NINGUNO 0 SN,SAN FRANCISCO UNINAJAB,Chiapas,,,2019-11,Aquaculture Farm,Piscicultura en agua dulce,EL NARANJO DE SAN FRANCISCO UNINAJAB SC DE RL DE CV,,,,16.10215727,-92.15929524,Comitán de Domínguez,,,,,,,,,,,,,,,,,,,,,,,,,,,,,,,,,,,,,,,,,,,,,,,,,,,,,,,,,,,,,,,,,,,,,,,,,,,,,,,,,,
9227315,9227315,EL PARAISO,,OTRO(ESPECIFIQUE) NINGUNO 1,PARAISO DEL GRIJALVA,Chiapas,,9921201365,2020-04,Aquaculture Farm,Piscicultura en agua dulce,,,,,16.22538801,-92.64481485,Venustiano Carranza,,,,,,,,,,,,,,,,,,,,,,,,,,,,,,,,,,,,,,,,,,,,,,,,,,,,,,,,,,,,,,,,,,,,,,,,,,,,,,,,,,
11201292,11201292,GANADERA EL ESFUERZO,,AVENIDA PERIFERICO SUR 0 SN,SAN JOSE,Chiapas,29960,,2024-11,Farm / Breeder,Servicios relacionados con la cría y explotación de animales,,,,,17.5052363,-91.98591285,Palenque,,,,,,,,,,,,,,,,,,,,,,,,,,,,,,,,,,,,,,,,,,,,,,,,,,,,,,,,,,,,,,,,,,,,,,,,,,,,,,,,,,
11844867,11844867,GRANJA ACUICOLA LA FAMILIA,,CALLE NINGUNO 0 SN,MIRADOR,Chiapas,,9612441723,2025-05,Aquaculture Farm,Piscicultura en agua dulce,,,,,17.15123027,-93.41965161,Tecpatán,,,,,,,,,,,,,,,,,,,,,,,,,,,,,,,,,,,,,,,,,,,,,,,,,,,,,,,,,,,,,,,,,,,,,,,,,,,,,,,,,,
9226704,9226704,GRANJA ACUICOLA LOS PESCADORES DEL RETIRO,,CALLE NINGUNO 0 SN,EL RETIRO,Chiapas,,,2020-04,Aquaculture Farm,Piscicultura en agua dulce,ASOCIACION CIVIL LOS PESCADORES DE RETIRO SC,,,,17.3463703,-92.75760566,Amatán,,,,,,,,,,,,,,,,,,,,,,,,,,,,,,,,,,,,,,,,,,,,,,,,,,,,,,,,,,,,,,,,,,,,,,,,,,,,,,,,,,
11845181,11845181,GRANJA ALEVIJES RIO BLANCO,,CALLE Ninguno 1,RIO BLANCO,Chiapas,,9612862331,2025-05,Aquaculture Farm,Piscicultura en agua dulce,,,,,17.15631876,-93.38066314,Tecpatán,,,,,,,,,,,,,,,,,,,,,,,,,,,,,,,,,,,,,,,,,,,,,,,,,,,,,,,,,,,,,,,,,,,,,,,,,,,,,,,,,,
11845186,11845186,GRANJA EL MANGUITO,,CALLE Ninguno 1,MONTE ALEGRE,Chiapas,29120,9841160728,2025-05,Aquaculture Farm,Piscicultura en agua dulce,,,,,17.04039176,-93.39478591,Tecpatán,,,,,,,,,,,,,,,,,,,,,,,,,,,,,,,,,,,,,,,,,,,,,,,,,,,,,,,,,,,,,,,,,,,,,,,,,,,,,,,,,,
9284405,9284405,GRANJA LA CEIBA,,CALLE OCTAVA NORTE ORIENTE 0 SN,GUADALUPE,Chiapas,,,2020-11,Aquaculture Farm,Piscicultura en agua dulce,,,,,16.32365608,-91.9810324,Las Margaritas,,,,,,,,,,,,,,,,,,,,,,,,,,,,,,,,,,,,,,,,,,,,,,,,,,,,,,,,,,,,,,,,,,,,,,,,,,,,,,,,,,
8764789,8764789,GRUPO PRODUCTOR NIHP,,CALLE Ninguno 1,EL EMBARCADERO DE APIC PAC,Chiapas,,,2019-11,Aquaculture Farm,Piscicultura en agua dulce,GRUPO NIHP SC DE RL DE CV,,,,17.058205,-93.46390083,Ocozocoautla de Espinosa,,,,,,,,,,,,,,,,,,,,,,,,,,,,,,,,,,,,,,,,,,,,,,,,,,,,,,,,,,,,,,,,,,,,,,,,,,,,,,,,,,
11845089,11845089,LA CABAÑA LA PUNTA DEL CIELO,,CALLE Ninguno 1,BANCO DE ARENA,Chiapas,29140,9613211385,2025-05,Aquaculture Farm,Piscicultura en agua dulce,LA CABAÑA LA PUNTA DEL CIELO SC DE RL DE CV,,,,17.05475293,-93.4558632,Ocozocoautla de Espinosa,,,,,,,,,,,,,,,,,,,,,,,,,,,,,,,,,,,,,,,,,,,,,,,,,,,,,,,,,,,,,,,,,,,,,,,,,,,,,,,,,,
11845182,11845182,LA CASCADA I,,CALLE Ninguno 1,LA CASCADA,Chiapas,29610,9681089595,2025-05,Aquaculture Farm,Piscicultura en agua dulce,,,,,17.15631876,-93.38066314,Tecpatán,,,,,,,,,,,,,,,,,,,,,,,,,,,,,,,,,,,,,,,,,,,,,,,,,,,,,,,,,,,,,,,,,,,,,,,,,,,,,,,,,,
6498239,6498239,LA VASCULA DE LA GANADERA,,CALLE NINGUNO 0 SN Int. 0,BENITO JUAREZ,Chiapas,30360,,2016-01,Farm / Breeder,Servicios relacionados con la cría y explotación de animales,ASOCIACIÓN GANADERA AC,,,,16.04702755,-92.81467558,La Concordia,,,,,,,,,,,,,,,,,,,,,,,,,,,,,,,,,,,,,,,,,,,,,,,,,,,,,,,,,,,,,,,,,,,,,,,,,,,,,,,,,,
8764811,8764811,LAS DELICIAS DEL CANELAR,,CALLE Ninguno 0 SN,EL CANELAR,Chiapas,,9611087864,2019-11,Aquaculture Farm,Piscicultura en agua dulce,LAS DELICIAS DEL CANELAR SC DE RL,,,,16.32381649,-92.88000965,Chiapa de Corzo,,,,,,,,,,,,,,,,,,,,,,,,,,,,,,,,,,,,,,,,,,,,,,,,,,,,,,,,,,,,,,,,,,,,,,,,,,,,,,,,,,
11845190,11845190,LOS PAVORREALES,,CALLE Ninguno 0 SN,LAS BRISAS,Chiapas,30540,,2025-05,Aquaculture Farm,Piscicultura en agua dulce,,,,,15.52265349,-93.11618329,Pijijiapan,,,,,,,,,,,,,,,,,,,,,,,,,,,,,,,,,,,,,,,,,,,,,,,,,,,,,,,,,,,,,,,,,,,,,,,,,,,,,,,,,,
8615426,8615426,OFICINA DE INSPECCION SISTEMA PRODUCTO PORCINO DEL ESTADO,,BOULEVARD DOCTOR BELISARIO DOMINGUEZ 2956 Int. 4,TERAN,Chiapas,29050,,2019-11,Farm / Breeder,Servicios relacionados con la cría y explotación de animales,SISTEMA PRODUCTP PORCINO AC,,,,16.7565689,-93.16022726,Tuxtla Gutiérrez,,,,,,,,,,,,,,,,,,,,,,,,,,,,,,,,,,,,,,,,,,,,,,,,,,,,,,,,,,,,,,,,,,,,,,,,,,,,,,,,,,
443570,443570,OFICINA DEL RANCHO SANDI,,CALLE TRIGESIMA ORIENTE 320 Int. 0,EL EMBARCADERO,Chiapas,30560,,2014-12,Farm / Breeder,Servicios relacionados con la cría y explotación de animales,RANCHO SANDI S DE RL DE CV,,,,15.4306747,-92.90195593,Mapastepec,,,,,,,,,,,,,,,,,,,,,,,,,,,,,,,,,,,,,,,,,,,,,,,,,,,,,,,,,,,,,,,,,,,,,,,,,,,,,,,,,,
6811599,6811599,PEÑA DE HOREB,,CALLE NINGUNO 0 SN,EL PROGRESO,Chiapas,,9631270653,2017-11,Aquaculture Farm,Piscicultura en agua dulce,AGRO PEÑA D HOREB S DE RL DE CV,,,,16.30543538,-91.93571898,Las Margaritas,,,,,,,,,,,,,,,,,,,,,,,,,,,,,,,,,,,,,,,,,,,,,,,,,,,,,,,,,,,,,,,,,,,,,,,,,,,,,,,,,,
10044667,10044667,PESA GANADEARA,,AVENIDA NORTE 0 SN,LUIS DONALDO COLOSIO,Chiapas,30560,,2024-11,Farm / Breeder,Servicios relacionados con la cría y explotación de animales,PESA GANADERA,,,,15.45574885,-92.89733388,Mapastepec,,,,,,,,,,,,,,,,,,,,,,,,,,,,,,,,,,,,,,,,,,,,,,,,,,,,,,,,,,,,,,,,,,,,,,,,,,,,,,,,,,
8542012,8542012,PISCICULTURA EN AGUA DULCE SIN NOMBRE,,CALLE Ninguno 1,ELEMBARCADERO DE APIC PAC,Chiapas,29140,9682900125,2019-11,Aquaculture Farm,Piscicultura en agua dulce,,,,,16.78423829,-93.42721088,Ocozocoautla de Espinosa,,,,,,,,,,,,,,,,,,,,,,,,,,,,,,,,,,,,,,,,,,,,,,,,,,,,,,,,,,,,,,,,,,,,,,,,,,,,,,,,,,
11845220,11845220,PISCICULTURA EN AGUA DULCE SIN NOMBRE,,AVENIDA Campeche 0 SN,LOS TOCAYOS,Chiapas,,,2025-05,Aquaculture Farm,Piscicultura en agua dulce,,,,,15.36560642,-92.89904283,Mapastepec,,,,,,,,,,,,,,,,,,,,,,,,,,,,,,,,,,,,,,,,,,,,,,,,,,,,,,,,,,,,,,,,,,,,,,,,,,,,,,,,,,
11845189,11845189,PISCICULTURA EN AGUA DULCE SIN NOMBRE,,CALLE Ninguno 0 SN,LA UNION,Chiapas,30648,9646232360,2025-05,Aquaculture Farm,Piscicultura en agua dulce,,,,,15.05673812,-92.50974684,Huixtla,,,,,,,,,,,,,,,,,,,,,,,,,,,,,,,,,,,,,,,,,,,,,,,,,,,,,,,,,,,,,,,,,,,,,,,,,,,,,,,,,,
11845200,11845200,PISCICULTURA EN AGUA DULCE SIN NOMBRE,,CALLE Ninguno 0 SN Int. 0 SN,HERMENEGILDO GALEANA,Chiapas,,,2025-05,Aquaculture Farm,Piscicultura en agua dulce,,,,,15.54286366,-92.99536768,Pijijiapan,,,,,,,,,,,,,,,,,,,,,,,,,,,,,,,,,,,,,,,,,,,,,,,,,,,,,,,,,,,,,,,,,,,,,,,,,,,,,,,,,,
6168616,6168616,PISCICULTURA EN AGUA DULCE SIN NOMBRE,,CALLE LIBRAMIENTO NORTE 1000,BUENOS AIRES,Chiapas,30798,,2010-07,Aquaculture Farm,Piscicultura en agua dulce,,,,,14.87521705,-92.29286112,Tapachula,,,,,,,,,,,,,,,,,,,,,,,,,,,,,,,,,,,,,,,,,,,,,,,,,,,,,,,,,,,,,,,,,,,,,,,,,,,,,,,,,,
6168351,6168351,PISCICULTURA EN AGUA DULCE SIN NOMBRE,,CALLE Ninguno 0 SN,LA VICTORIA,Chiapas,30650,,2014-12,Aquaculture Farm,Piscicultura en agua dulce,,,,,14.80166058,-92.5098012,Mazatán,,,,,,,,,,,,,,,,,,,,,,,,,,,,,,,,,,,,,,,,,,,,,,,,,,,,,,,,,,,,,,,,,,,,,,,,,,,,,,,,,,
11845197,11845197,PISCICULTURA EN AGUA DULCE SIN NOMBRE,,CALLE Ninguno 0 SN Int. 0 SN,NUEVA COSTA RICA,Chiapas,30560,9181076627,2025-05,Aquaculture Farm,Piscicultura en agua dulce,,,,,15.46664631,-92.81553656,Mapastepec,,,,,,,,,,,,,,,,,,,,,,,,,,,,,,,,,,,,,,,,,,,,,,,,,,,,,,,,,,,,,,,,,,,,,,,,,,,,,,,,,,
8810134,8810134,PISCICULTURA EN AGUA DULCE SIN NOMBRE,,CALLE Ninguno 1,EL EMBARCADERO DE API PAC,Chiapas,29140,,2019-11,Aquaculture Farm,Piscicultura en agua dulce,,,,,17.058205,-93.46390083,Ocozocoautla de Espinosa,,,,,,,,,,,,,,,,,,,,,,,,,,,,,,,,,,,,,,,,,,,,,,,,,,,,,,,,,,,,,,,,,,,,,,,,,,,,,,,,,,
11845221,11845221,PISCICULTURA EN AGUA DULCE SIN NOMBRE,,CALLE Ninguno 0 SN Int. 0 SN,TRES DE MAYO,Chiapas,,,2025-05,Aquaculture Farm,Piscicultura en agua dulce,,,,,15.56824017,-92.86799381,Mapastepec,,,,,,,,,,,,,,,,,,,,,,,,,,,,,,,,,,,,,,,,,,,,,,,,,,,,,,,,,,,,,,,,,,,,,,,,,,,,,,,,,,
11845214,11845214,PISCICULTURA EN AGUA DULCE SIN NOMBRE,,AVENIDA Central 0 SN Int. 0 SN,EL TRIUNFO,Chiapas,30600,,2025-05,Aquaculture Farm,Piscicultura en agua dulce,,,,,15.35147052,-92.55466572,Escuintla,,,,,,,,,,,,,,,,,,,,,,,,,,,,,,,,,,,,,,,,,,,,,,,,,,,,,,,,,,,,,,,,,,,,,,,,,,,,,,,,,,
11845201,11845201,PISCICULTURA EN AGUA DULCE SIN NOMBRE,,CALLE Galeana 0 SN Int. 0 SN,HERMENEGILDO GALEANA,Chiapas,,,2025-05,Aquaculture Farm,Piscicultura en agua dulce,,,,,15.55136918,-93.00993369,Pijijiapan,,,,,,,,,,,,,,,,,,,,,,,,,,,,,,,,,,,,,,,,,,,,,,,,,,,,,,,,,,,,,,,,,,,,,,,,,,,,,,,,,,
11845211,11845211,PISCICULTURA EN AGUA DULCE SIN NOMBRE,,CALLE Ninguno 0 SN Int. 0 SN,LA CONQUISTA,Chiapas,,9181131578,2025-05,Aquaculture Farm,Piscicultura en agua dulce,,,,,15.66832643,-93.41487925,Pijijiapan,,,,,,,,,,,,,,,,,,,,,,,,,,,,,,,,,,,,,,,,,,,,,,,,,,,,,,,,,,,,,,,,,,,,,,,,,,,,,,,,,,
11845204,11845204,PISCICULTURA EN AGUA DULCE SIN NOMBRE,,CALLE Ninguno 0 SN Int. 0 SN,EL VERGEL,Chiapas,,,2025-05,Aquaculture Farm,Piscicultura en agua dulce,,,,,15.64302901,-92.97020324,Pijijiapan,,,,,,,,,,,,,,,,,,,,,,,,,,,,,,,,,,,,,,,,,,,,,,,,,,,,,,,,,,,,,,,,,,,,,,,,,,,,,,,,,,
11845208,11845208,PISCICULTURA EN AGUA DULCE SIN NOMBRE,,CALLE Ninguno 0 SN,MIRAMAR,Chiapas,30553,,2025-05,Aquaculture Farm,Piscicultura en agua dulce,,,,,15.60496248,-93.02732743,Pijijiapan,,,,,,,,,,,,,,,,,,,,,,,,,,,,,,,,,,,,,,,,,,,,,,,,,,,,,,,,,,,,,,,,,,,,,,,,,,,,,,,,,,
11845215,11845215,PISCICULTURA EN AGUA DULCE SIN NOMBRE,,CALLE Ninguno 0 SN Int. 0 SN,PIEDRAS BLANCAS,Chiapas,,,2025-05,Aquaculture Farm,Piscicultura en agua dulce,,,,,15.52395342,-92.94965157,Mapastepec,,,,,,,,,,,,,,,,,,,,,,,,,,,,,,,,,,,,,,,,,,,,,,,,,,,,,,,,,,,,,,,,,,,,,,,,,,,,,,,,,,
11845194,11845194,PISCICULTURA EN AGUA DULCE SIN NOMBRE,,AVENIDA Central Solidaridad 0 SN Int. 0 SN,JIQUILPAN,Chiapas,,,2025-05,Aquaculture Farm,Piscicultura en agua dulce,,,,,15.3419688,-92.74794017,Acapetahua,,,,,,,,,,,,,,,,,,,,,,,,,,,,,,,,,,,,,,,,,,,,,,,,,,,,,,,,,,,,,,,,,,,,,,,,,,,,,,,,,,
11845203,11845203,PISCICULTURA EN AGUA DULCE SIN NOMBRE,,CALLE Ninguno 0 SN Int. 0 SN,EL VERGEL,Chiapas,30540,,2025-05,Aquaculture Farm,Piscicultura en agua dulce,,,,,15.64195156,-92.97254751,Pijijiapan,,,,,,,,,,,,,,,,,,,,,,,,,,,,,,,,,,,,,,,,,,,,,,,,,,,,,,,,,,,,,,,,,,,,,,,,,,,,,,,,,,
11845216,11845216,PISCICULTURA EN AGUA DULCE SIN NOMBRE,,AVENIDA Ignacio Zaragoza 0 SN Int. 0 0,LA VICTORIA,Chiapas,30450,,2025-05,Aquaculture Farm,Piscicultura en agua dulce,,,,,15.44969537,-92.93054419,Mapastepec,,,,,,,,,,,,,,,,,,,,,,,,,,,,,,,,,,,,,,,,,,,,,,,,,,,,,,,,,,,,,,,,,,,,,,,,,,,,,,,,,,
11845218,11845218,PISCICULTURA EN AGUA DULCE SIN NOMBRE,,CALLE Ninguno 0 SN Int. 0 0,ANTIGUA GUADALUPE NUMERO 1,Chiapas,30576,,2025-05,Aquaculture Farm,Piscicultura en agua dulce,,,,,15.51073917,-92.88372861,Mapastepec,,,,,,,,,,,,,,,,,,,,,,,,,,,,,,,,,,,,,,,,,,,,,,,,,,,,,,,,,,,,,,,,,,,,,,,,,,,,,,,,,,
11844873,11844873,PISCICULTURA EN AGUA DULCE SIN NOMBRE,,CALLE Ninguno 1,SAN FRANCISCO,Chiapas,29140,9613555959,2025-05,Aquaculture Farm,Piscicultura en agua dulce,,,,,17.05832303,-93.46345559,Ocozocoautla de Espinosa,,,,,,,,,,,,,,,,,,,,,,,,,,,,,,,,,,,,,,,,,,,,,,,,,,,,,,,,,,,,,,,,,,,,,,,,,,,,,,,,,,
11845205,11845205,PISCICULTURA EN AGUA DULCE SIN NOMBRE,,CALLE Ninguno 0 SN,EL MILENIO,Chiapas,,,2025-05,Aquaculture Farm,Piscicultura en agua dulce,,,,,15.64367059,-92.96944016,Pijijiapan,,,,,,,,,,,,,,,,,,,,,,,,,,,,,,,,,,,,,,,,,,,,,,,,,,,,,,,,,,,,,,,,,,,,,,,,,,,,,,,,,,
11845192,11845192,PISCICULTURA EN AGUA DULCE SIN NOMBRE,,CALLE Morelos 0 SN Int. 0 SN,HIDALGO,Chiapas,,7775135975,2025-05,Aquaculture Farm,Piscicultura en agua dulce,YOLANDA PONCE CRUZ S DE RL DE CV,,,,15.35219316,-92.74109208,Acacoyagua,,,,,,,,,,,,,,,,,,,,,,,,,,,,,,,,,,,,,,,,,,,,,,,,,,,,,,,,,,,,,,,,,,,,,,,,,,,,,,,,,,
11845219,11845219,PISCICULTURA EN AGUA DULCE SIN NOMBRE,,CALLE Ninguno 0 SN Int. 0 0,ANTIGUO GUADALUPE NUMERO 1,Chiapas,30457,,2025-05,Aquaculture Farm,Piscicultura en agua dulce,,,,,15.51073917,-92.88372861,Mapastepec,,,,,,,,,,,,,,,,,,,,,,,,,,,,,,,,,,,,,,,,,,,,,,,,,,,,,,,,,,,,,,,,,,,,,,,,,,,,,,,,,,
8810131,8810131,PISCICULTURA EN AGUA DULCE SIN NOMBRE,,CALLE Ninguno 1,EMBARCADERO APIC PAC,Chiapas,30553,9613879684,2019-11,Aquaculture Farm,Piscicultura en agua dulce,,,,,17.05942955,-93.4626471,Ocozocoautla de Espinosa,,,,,,,,,,,,,,,,,,,,,,,,,,,,,,,,,,,,,,,,,,,,,,,,,,,,,,,,,,,,,,,,,,,,,,,,,,,,,,,,,,
11845212,11845212,PISCICULTURA EN AGUA DULCE SIN NOMBRE,,CALLE Ninguno 0 SN Int. 0 0,MONTECRISTO,Chiapas,30540,,2025-05,Aquaculture Farm,Piscicultura en agua dulce,,,,,15.75317111,-93.31707556,Pijijiapan,,,,,,,,,,,,,,,,,,,,,,,,,,,,,,,,,,,,,,,,,,,,,,,,,,,,,,,,,,,,,,,,,,,,,,,,,,,,,,,,,,
11845199,11845199,PISCICULTURA EN AGUA DULCE SIN NOMBRE,,CALLE Ninguno 0 SN Int. 0 SN,LA NUEVA ESPERANZA,Chiapas,,,2025-05,Aquaculture Farm,Piscicultura en agua dulce,,,,,15.45561774,-92.83339287,Mapastepec,,,,,,,,,,,,,,,,,,,,,,,,,,,,,,,,,,,,,,,,,,,,,,,,,,,,,,,,,,,,,,,,,,,,,,,,,,,,,,,,,,
8542037,8542037,PISCICULTURA EN AGUA DULCE SIN NOMBRE,,PRIVADA NINGUNO 0 SN Int. 0 SN,MARIA ESTER,Chiapas,,,2019-11,Aquaculture Farm,Piscicultura en agua dulce,,,,,15.40628123,-92.72860871,Acacoyagua,,,,,,,,,,,,,,,,,,,,,,,,,,,,,,,,,,,,,,,,,,,,,,,,,,,,,,,,,,,,,,,,,,,,,,,,,,,,,,,,,,
11845195,11845195,PISCICULTURA EN AGUA DULCE SIN NOMBRE,,CALLE Ninguno 0 SN Int. 0 SN,LA NUEVA ESPERANZA,Chiapas,,,2025-05,Aquaculture Farm,Piscicultura en agua dulce,,,,,15.45562792,-92.83357261,Mapastepec,,,,,,,,,,,,,,,,,,,,,,,,,,,,,,,,,,,,,,,,,,,,,,,,,,,,,,,,,,,,,,,,,,,,,,,,,,,,,,,,,,
8836073,8836073,PISCICULTURA EN AGUA DULCE SIN NOMBRE,,CALLE Ninguno 0 SN,PEÑITAS ELMICO,Chiapas,29553,9612861145,2019-11,Aquaculture Farm,Piscicultura en agua dulce,,,,,17.45737294,-93.45486224,Ostuacán,,,,,,,,,,,,,,,,,,,,,,,,,,,,,,,,,,,,,,,,,,,,,,,,,,,,,,,,,,,,,,,,,,,,,,,,,,,,,,,,,,
11845196,11845196,PISCICULTURA EN AGUA DULCE SIN NOMBRE,,CALLE Ninguno 0 SN Int. 0 SN,LA NUEVA ESPERANZA,Chiapas,,,2025-05,Aquaculture Farm,Piscicultura en agua dulce,,,,,15.45586619,-92.83293159,Mapastepec,,,,,,,,,,,,,,,,,,,,,,,,,,,,,,,,,,,,,,,,,,,,,,,,,,,,,,,,,,,,,,,,,,,,,,,,,,,,,,,,,,
11845090,11845090,PISCICULTURA EN AGUA DULCE SIN NOMBRE,,CALLE Ninguno 1,BANCO DE ARENA,Chiapas,29014,9682803800,2025-05,Aquaculture Farm,Piscicultura en agua dulce,,,,,17.05471278,-93.45582639,Ocozocoautla de Espinosa,,,,,,,,,,,,,,,,,,,,,,,,,,,,,,,,,,,,,,,,,,,,,,,,,,,,,,,,,,,,,,,,,,,,,,,,,,,,,,,,,,
11845198,11845198,PISCICULTURA EN AGUA DULCE SIN NOMBRE,,CALLE Ninguno 0 SN Int. 0 SN,NUEVA ESPERANZA,Chiapas,,,2025-05,Aquaculture Farm,Piscicultura en agua dulce,,,,,15.45570289,-92.83347069,Mapastepec,,,,,,,,,,,,,,,,,,,,,,,,,,,,,,,,,,,,,,,,,,,,,,,,,,,,,,,,,,,,,,,,,,,,,,,,,,,,,,,,,,
11845084,11845084,PISCICULTURA EN AGUA DULCE SIN NOMBRE,,CALLE Ninguno 1,BANCO ARENA,Chiapas,29049,9611700816,2025-05,Aquaculture Farm,Piscicultura en agua dulce,,,,,17.05563692,-93.45599265,Ocozocoautla de Espinosa,,,,,,,,,,,,,,,,,,,,,,,,,,,,,,,,,,,,,,,,,,,,,,,,,,,,,,,,,,,,,,,,,,,,,,,,,,,,,,,,,,
11845213,11845213,PISCICULTURA EN AGUA DULCE SIN NOMBRE,,CALLE Ninguno 0 SN Int. 0 SN,LAS PERLAS,Chiapas,,9181165230,2025-05,Aquaculture Farm,Piscicultura en agua dulce,,,,,15.64897821,-93.17604157,Pijijiapan,,,,,,,,,,,,,,,,,,,,,,,,,,,,,,,,,,,,,,,,,,,,,,,,,,,,,,,,,,,,,,,,,,,,,,,,,,,,,,,,,,
