establishment_id,establishment_name,street,city,state,zip,latitude,longitude,type,slaughter,animals_slaughtered_list,animals_processed_list,phone,grant_date,dbas,slaughter_volume_category,processing_volume_category
1202/01,Michael Brian Newman,133 Maxwell Road,Blenheim,Marlborough District Council,,0.0,0.0,Risk Management Programme - Dual operator butcher,No,,"Animal products (non-dairy), Poultry, Red meat",,2005-08-23,,,
124/01,Pacific Lab Holdings Limited,"8 Winefair Close, Cloudy Bay Business Park",Blenheim,Marlborough District Council,,0.0,0.0,Risk Management Programme - Custom,No,,"Animal products (non-dairy), Bee products, Casein, Caseinate, Colostrum products, Dairy material, Dairy products, Milk powders, Milk proteins, Nutritional powders excl IF & FOF, Speciality powders, Whey products",,2023-08-21,,,
1260/01,New Zealand Nutritional Wellness Limited,"126 Pavilion Drive, Auckland Airport",Auckland,Auckland Council,,-36.9820593,174.7728616,Risk Management Programme - Custom,No,,"Colostrum products, Dairy products, Eggs, Fermented milk products, Milk powders, Non-AP, Nutritional powders excl IF & FOF, Speciality powders",,2023-09-05,,,
135BIZCOM/01,Bizcom Solutions Limited,135 Rangiotu Road,Himatangi,Manawatu District Council,,-40.3938098,175.3306359,Risk Management Programme - Chicken producers,No,,Broiler (meat) chickens,,2023-10-30,,,
1380/01,New Zealand New Milk Limited,"138 Pavilion Drive, Auckland Airport",Auckland,Auckland Council,,-36.9816643,174.7742605,Risk Management Programme - Custom,No,,"Colostrum products, Dairy products, Follow-on formula, Infant formula, Milk powders, Nutritional powders excl IF & FOF, Speciality powders",,2023-08-06,,,
1403/01,Quality Foods Southland Limited,1 Baker Street,Invercargill,Invercargill City Council,,-46.4140918,168.3926485,Risk Management Programme - Custom,No,,"Anhydrous milk fat, Butter, Colostrum, Dairy fat blends, Dairy products, Milk & cream based formulations, Unpasteurised milk products - milk & cream",,2022-06-17,,,
1494/01,Alpine Honey Specialties Limited,"198 Domain Road,RD2",HAWEA FLAT,Queenstown-Lakes District Council,,0.0,0.0,Risk Management Programme - Bee products - Honey and dried pollen processing,No,,"Bee products, Beeswax, Honey",,2022-04-12,,,
153WPARK/01,Willow Haven Limited,[Private],Auckland,Auckland Council,,-36.9832291,174.8561414,Risk Management Programme - Chicken producers,No,,Broiler (meat) chickens,,2023-10-17,,,
1688/01,a2 Nutritionals NZ Limited,66 McDonald Road,Pokeno,Auckland Council,,-37.251881,175.01967,Risk Management Programme - Custom,No,,"Dairy products, Follow-on formula, Infant formula, Milk & cream, Milk powders, Nutritional powders excl IF & FOF",,2023-05-05,,,
170/01,Bakels Edible Oils (NZ) Limited,5 Hutton Place,Mount Maunganui,Tauranga City Council,,-37.6613877,176.1998605,Risk Management Programme - Custom,No,,"Anhydrous milk fat, Animal fat, Animal products (non-dairy), Colostrum products, Dairy fat blends, Dairy material, Dairy products, Fats/oils, Fish oil, Milk & cream based formulations, Non-AP, Tallow",,2022-12-01,,,
173TC/01,Central Gold Eggs Limited,"173 Roxburgh East Road, RD 1",Roxburgh,Central Otago District Council,,0.0,0.0,Risk Management Programme - Eggs,No,,"Eggs, Layer chickens, Rearer laying chickens",,2022-06-14,,,
1772014/01,Midlife Limited,177 Grange Road,BURNHAM,Christchurch City Council,,-43.6058622,172.2864234,Risk Management Programme - Eggs,No,,Eggs,,2022-02-01,,,
17888/01,Winston Nutritional Limited,"37 Banks Road, Mt Wellington",Auckland,Auckland Council,,-36.8985625,174.8357515,Risk Management Programme - Custom,No,,"Dairy products, Follow-on formula, Infant formula, Milk powders, Nutritional powders excl IF & FOF",,2023-04-03,,,
1816/01,Geraldine Cheese Company Limited,76G Talbot Street,Geraldine,Timaru District Council,,0.0,0.0,Risk Management Programme - Custom,No,,"Butter, Dairy material, Dairy products, Fermented milk products, Firm and hard cheese (MSNF < 60%), Milk & cream, Soft & semi-soft cheese (MSNF > 60%)",,2021-12-13,,,
1886/01,Sherry Valley Apiaries Limited,"160 Sherry River Road, RD 2",Wakefield,Nelson City Council,,0.0,0.0,Risk Management Programme - Bee products - Bulk honey storage,No,,"Bee products, Beeswax",,2022-12-09,,,
1948308/01,Otaika Valley Free Range Eggs Limited,"725 State Highway 1, RD 8",Whangarei,Whangarei District Council,,0.0,0.0,Risk Management Programme - Eggs,No,,Eggs,,2021-11-29,,,
1955/01,Quentin Reardon,"Unit 14, Redwood Shopping Centre,5 Tarawera Road,Lynmore",Rotorua,Rotorua Lakes Council,,0.0,0.0,Risk Management Programme - Dual operator butcher,No,,"Animal products (non-dairy), Poultry, Red meat",,2016-09-16,Quinny's Redwood Butchery,,
1984/01,Graeme Hodges & Sheree Hodges,128 Studholme Street,Morrinsville,Matamata-Piako District Council,,-37.6524728,175.523311,Risk Management Programme - Dual operator butcher,No,,"Animal products (non-dairy), Fish, Poultry, Red meat",,2014-11-26,Mootown Meats,,
1ARTISAN/01,Artisan Meats Limited,"87 Brigham Creek Road, Whenuapai",Auckland,Auckland Council,,-36.7934161,174.6159638,Risk Management Programme - Dual operator butcher,No,,"Animal products (non-dairy), Red meat",,2016-03-04,Meat Merchant,,
1CHOOKFARM/01,The Chook Farm Limited,"Lambert Road, Purua",Whangarei,Whangarei District Council,,0.0,0.0,Risk Management Programme - Eggs,No,,Eggs,,2023-06-02,,,
1EASTSIDE/01,Stephen Scannell & Diane Scannell Partnership,4 Denmark Street,Temuka,Ashburton District Council,,-44.2437246,171.2797202,Risk Management Programme - Dual operator butcher,No,,"Animal products (non-dairy), Poultry, Red meat",,2005-07-04,Eastside Butchery Temuka,,
1EDGE/01,Edgecomb Honey Limited,"1 Edgehaven Lane, Otakiri",Whakatane,Whakatane District Council,,0.0,0.0,Risk Management Programme - Bee products - Honey and dried pollen processing,No,,"Bee products, Beeswax, Honey",,2006-06-15,,,
1LINMEATS/01,Deutsches Eck Limited,6/9 Gerald Street,Lincoln,Christchurch City Council,,-43.6414753,172.4739946,Risk Management Programme - Dual operator butcher,No,,"Animal products (non-dairy), Poultry, Red meat",,2011-11-15,,,
1LNZ/01,Lawand (New Zealand) Limited,"Unit C, 35 Keeling Road, Henderson",Auckland,Auckland Council,,0.0,0.0,Risk Management Programme - Stores - Cold and Dry,No,,"Animal products (non-dairy), Bee products, Dairy products, Fats/oils, Non-AP",,2023-09-12,,,
1OTAKIMEAT/01,Tender Cuts Limited,294 Oxford Street,Levin,Horowhenua District Council,,-40.6282495,175.2804633,Risk Management Programme - Dual operator butcher,No,,"Animal products (non-dairy), Poultry, Red meat",,2020-09-08,Saville's Gourmet Butchery,,
1S2SL/01,One Sheep Two Sheep Limited,292 Days Road,Springston,Selwyn District Council,,-43.6713211,172.4390941,Risk Management Programme - Custom,No,,"Dairy material, Dairy products, Unpasteurised milk products - milk & cream",,2022-12-14,,,
1SR/01,Scottys Meats 1 Limited,2 Kansas Street,Martinborough,South Wairarapa District Council,,-41.2178268,175.4598258,"Risk Management Programme - Dual operator butcher, Dual operator butcher - Attachment U, Meat at Stalls",No,,"Animal products (non-dairy), Eggs, Fish, Non-AP, Poultry, Red meat",,2023-04-04,,,
1SWEETLIFE/01,The SweetLife 2021 Limited,"506C McLaren Falls Road, RD 1",Tauranga,Tauranga City Council,,0.0,0.0,Risk Management Programme - Bee products - Bulk honey storage,No,,"Bee products, Beeswax, Comb honey, Honey",,2023-03-10,,,
200/01,Merrall MacNeille,101 Reynoldstown Road,Port Chalmers,Dunedin City Council,,-45.8026365,170.6205651,"Risk Management Programme - Dairy - Cheese domestic supply, Dairy - Ice cream domestic supply, Farm dairies - Domestic supply",No,,"Dairy material, Dairy products, Fermented milk products, Frozen milk products, Milk & cream, Soft & semi-soft cheese (MSNF > 60%)",,2020-07-17,Holy Cow,,
2005/01,Seadragon Marine Oils Limited,"12 Nayland Road, Stoke",Nelson,Nelson City Council,,-41.2992273,173.2381591,Risk Management Programme - Custom,No,,"Animal products (non-dairy), Bivalve molluscan shellfish, Fats/oils, Fish, Fish oil, Non-AP",,2023-05-25,,,
2007STEENS/01,P.A. & S.C. Steens Limited,"298 Manaia Road, RD 5",Masterton,Masterton District Council,,0.0,0.0,Risk Management Programme - Bee products - Honey and dried pollen processing,No,,"Animal products (non-dairy), Bee products, Beeswax, Honey",,2022-06-23,,,
205CC/01,Cilantro Cheese Limited,"10 Bisley Road, Ruakura",Hamilton,Hamilton City Council,,-37.7752267,175.3039336,Risk Management Programme - Custom,No,,"Dairy material, Dairy products, Fermented milk products, Firm and hard cheese (MSNF < 60%), Frozen milk products, Milk & cream, Preserved milks, Soft & semi-soft cheese (MSNF > 60%)",,2023-05-15,,,
2093/01,New Zealand Dairy Dessert Company Limited,"26A McMahon Street, Stoke",Nelson,Nelson City Council,,-41.3197357,173.2264477,Risk Management Programme - Custom,No,,"Dairy material, Dairy products, Fermented milk products, Frozen milk products, Non-AP",,2023-01-12,Appleby Farms,,
2094/01,Gopals Sweets & Snacks Limited,"21 Subway Road, Pukekohe",Auckland,Auckland Council,,0.0,0.0,"Risk Management Programme - Dairy - Liquid milk domestic supply, Dairy - Yoghurt domestic supply",No,,"Dairy products, Fermented milk products, Milk & cream",,2022-12-05,,,
209AVENUE/01,Stelco Poultry Limited,"151 Hickford Road,RD 13",Foxton,Horowhenua District Council,,-40.4861433,175.3139651,Risk Management Programme - Chicken producers,No,,Broiler (meat) chickens,,2023-10-30,,,
2102/01,Argenta Manufacturing Limited,"2 Sterling Avenue, Manurewa",Auckland,Auckland Council,,-37.0291824,174.9084407,Risk Management Programme - Custom,No,,"Dairy products, Red meat",,2020-03-19,,,
2107/01,New Zealand Health Manufacturing Limited,"78A Richard Pearse Drive, Mangere",Auckland,Auckland Council,,-36.9838187,174.7813966,Risk Management Programme - Stores - Cold and Dry,No,,"Animal products (non-dairy), Dairy products, Non-AP",,2022-09-13,,,
2175/01,Keytone Enterprises (NZ) Company Limited,17 Hynds Drive,Christchurch,Christchurch City Council,,0.0,0.0,Risk Management Programme - Custom,No,,"Colostrum products, Dairy products, Milk powders, Non-AP, Nutritional powders excl IF & FOF, Speciality powders, Whey products",,2023-07-03,,,
2184/01,Raine Farms Limited,"467 Suffolk Road, Stoke",Nelson,Nelson City Council,,-41.3293895,173.2209929,"Risk Management Programme - Dairy - Liquid milk domestic supply, Farm dairies - Export eligible milk",No,,"Dairy material, Dairy products, Milk & cream",,2023-01-12,,,
2186/01,New Zealand Health Manufacturing Limited,"7 Pavilion Drive, Airpark 2, Business Centre, Mangere",Auckland,Auckland Council,,0.0,0.0,Risk Management Programme - Custom,No,,"Animal products (non-dairy), Bee products, Bivalve molluscan shellfish, Colostrum products, Dairy products, Deer Velvet, Eggs, Fish, Gelatine, Lactose, Milk powders, Milk proteins, Poultry, Red meat, Speciality powders, Whey products",,2023-08-02,,,
2188/01,Dairy Products NZ Limited,"19 Rawson Way, Takanini",Auckland,Auckland Council,,-37.0319286,174.916895,Risk Management Programme - Custom,No,,"Dairy products, Milk & cream, Milk & cream based formulations, Milk powders, Non-AP, Speciality powders",,2023-08-17,,,
2198/01,Wairiri Buffalo Limited,"140 Davies Road, RD 1",COALGATE,Selwyn District Council,,0.0,0.0,"Risk Management Programme - Dairy Products, Farm dairies - Domestic supply",No,,"Butter, Dairy material, Dairy products, Fermented milk products, Firm and hard cheese (MSNF < 60%), Milk & cream, Soft & semi-soft cheese (MSNF > 60%)",,2022-12-16,,,
2203/01,Wimpex Limited,"3 Innovation Road, Waterloo Business Park, Islington",Christchurch,Christchurch City Council,,-43.5429301,172.4963817,Risk Management Programme - Custom,No,,"Anhydrous milk fat, Butter, Colostrum products, Dairy products, Milk powders, Milk proteins, Non-AP, Nutritional powders excl IF & FOF, Speciality powders, Whey products",,2023-06-07,,,
255/01,New Zealand Food Innovation Network Limited,"28 Verissimo Drive, Airport Oaks",Auckland,Auckland Council,,0.0,0.0,Risk Management Programme - Custom,No,,"Anhydrous milk fat, Animal products (non-dairy), Bee products, Bee venom, Beeswax, Bivalve molluscan shellfish, Butter, Casein, Caseinate, Colostrum products, Comb honey, Complex lipids, Cottage cheese, Cream cheese, Dairy products, Deer Velvet, Eggs, Farmed paua, Fats/oils, Fermented milk products, Firm and hard cheese (MSNF < 60%), Fish, Frozen cream, Frozen milk products, Gastropods (other than paua), Gelatine, Hides & Skins, Honey, Hydrolysates, Kina, Lactose, Milk & cream, Milk & cream based formulations, Milk fat products, Milk powders, Milk proteins, Non-AP, Nutritional powders excl IF & FOF, Paua, Pollen, Poultry, Preserved milks, Processed cheese, Propolis, Red meat, Royal jelly, Soft & semi-soft cheese (MSNF > 60%), Speciality powders, UCFM, Whey products",,2023-09-25,,,
25LOFTY/01,Paul Edward Hurrell,"25 Library Road, Te Karaka",Gisborne,Gisborne District Council,,0.0,0.0,Risk Management Programme - Dual operator butcher,No,,"Animal products (non-dairy), Poultry, Red meat",,2005-07-19,Te Karaka Meat Traders,,
2600/01,Megadairy Limited,"26 Waipareira Avenue, Henderson",Auckland,Auckland Council,,-36.8660444,174.634685,Risk Management Programme - Custom,No,,"Animal products (non-dairy), Bee products, Bivalve molluscan shellfish, Colostrum products, Dairy products, Eggs, Fish, Milk powders, Non-AP, Nutritional powders excl IF & FOF, Red meat, Speciality powders, Whey products",,2023-02-17,,,
280766/01,M21 Meats Limited,"Spa Gate Shopping Centre,Lower Spa Road",Taupo,Taupo District Council,,0.0,0.0,Risk Management Programme - Dual operator butcher,No,,"Animal products (non-dairy), Ostriches & emus, Poultry, Red meat",,2023-08-01,,,
281161/01,Michael Patrick Jones,6 Wilson Street,Geraldine,Timaru District Council,,0.0,0.0,Risk Management Programme - Dual operator butcher,No,,"Poultry, Red meat",,2019-10-24,Geraldine Butchery,,
2888/01,Best Health Foods Limited,"118 Hayton Road, Wigram",Christchurch,Christchurch City Council,,-43.5480967,172.5631862,Risk Management Programme - Custom,No,,"Colostrum products, Dairy products, Milk powders, Nutritional powders excl IF & FOF, Speciality powders, Whey products",,2021-10-19,,,
289/01,Melody Dairies GP Limited,"12 Melody Lane,Ruakura Road",Hamilton,Hamilton City Council,,0.0,0.0,Risk Management Programme - Custom,No,,"Animal products (non-dairy), Colostrum products, Dairy products, Milk & cream, Milk powders, Non-AP, Nutritional powders excl IF & FOF, Speciality powders, Whey products",,2022-05-02,,,
2BIRDSLTD/01,Two Bird Eggs Limited,149 Loburn Whiterock Road,Loburn,Waimakariri District Council,,-43.2562359,172.5330588,Risk Management Programme - Eggs,No,,Eggs,,2023-11-27,,,
2OMEGA/01,Charles Wayne and Sandra Rosemary Watkins,873 Whangaripo Valley Road,Wellsford,Auckland Council,,-36.2873724,174.5477538,Risk Management Programme - Eggs,No,,Eggs,,2022-01-26,,,
3005/01,Apollo Foods Limited,"127 Te Ara Kahikatea, Whakatu",Hastings,Hastings District Council,,-39.6111156,176.880336,Risk Management Programme - Custom,No,,"Dairy products, Milk & cream, Milk & cream based formulations",,2022-11-11,,,
32GARY/01,The Shores Limited,32 Queen Street,Waiuku,Auckland Council,,0.0,0.0,Risk Management Programme - Dual operator butcher,No,,"Animal products (non-dairy), Poultry, Red meat",,2019-12-06,Waiuku Village Butchery,,
3333/01,Bodco Limited,"6-10 Kaimiro Street, Pukete",Hamilton,Hamilton City Council,,-37.737035,175.228562,Risk Management Programme - Custom,No,,"Dairy products, Follow-on formula, Infant formula, Milk powders, Nutritional powders excl IF & FOF",,2023-02-21,,,
342MFRWPL/01,Westbrook Poultry Limited,"342 Mercer Ferry Road, RD 1",Tuakau,Auckland Council,,0.0,0.0,Risk Management Programme - Chicken producers,No,,Broiler (meat) chickens,,2023-10-06,,,
368/01,Align Foods Limited,368 Kings Road,Leeston,Selwyn District Council,,0.0,0.0,Risk Management Programme - Dairy Products,No,,"Dairy material, Dairy products, Fermented milk products, Milk & cream based formulations",,2023-08-22,,,
3BEE01/01,3 Bee Limited,"100 Teapot Valley Road, Brightwater",Nelson,Nelson City Council,,0.0,0.0,Risk Management Programme - Bee products - Bulk honey storage,No,,Bee products,,2020-04-14,,,
3GGV3NTUR3/01,Eggventurers Limited,"234 Ica Road, Whareama",Masterton,Masterton District Council,,-40.9411934,176.0540921,Risk Management Programme - Eggs,No,,Eggs,,2023-09-12,,,
3XT/01,Too-Ticki Limited,1014 Tairua Road,Whangamata,Hauraki District Council,,-37.1444135,175.8395042,Risk Management Programme - Bee products - Bulk honey storage,No,,"Bee products, Beeswax, Comb honey, Honey",,2023-05-25,,,
470/01,NZAgbiz Limited,2A King Street,Temuka,Ashburton District Council,,0.0,0.0,Risk Management Programme - Custom,No,,Dairy products,,2023-01-12,,,
517/01,Alaron Products Limited,"13 Bolt Road, Tahunanui",Nelson,Nelson City Council,,-41.2900786,173.2389194,Risk Management Programme - Custom,No,,"Animal products (non-dairy), Bee products, Bivalve molluscan shellfish, Caseinate, Colostrum products, Complex lipids, Dairy products, Deer Velvet, Eggs, Fish, Hydrolysates, Lactose, Milk powders, Milk proteins, Nutritional powders excl IF & FOF, Poultry, Propolis, Red meat, Speciality powders, Whey products",,2023-02-08,,,
5704794/01,Y.TQ Investment Limited,675 Gorge Road,Maungaturoto,Kaipara District Council,,-36.0678259,174.3819865,Risk Management Programme - Eggs,No,,Eggs,,2021-11-24,,,
588/01,Danone Nutricia NZ Limited,Corner Clutha Valley and Craig Road,Balclutha,Clutha District Council,,0.0,0.0,Risk Management Programme - Custom,No,,"Anhydrous milk fat, Dairy products, Follow-on formula, Infant formula, Milk powders, Nutritional powders excl IF & FOF",,2021-10-08,,,
5BW/01,New Zealand Beeswax Limited,44 Gladstone Street South,ORARI,Timaru District Council,,-44.141163,171.2903437,"Risk Management Programme - Bee products - Bulk honey storage, Bee products - Honey and dried pollen processing, Custom",No,,"Bee products, Beeswax",,2015-08-03,,,
643OKI/01,Riverbank Poultry Limited,643 Otaki Gorge Road,Otaki,Kapiti Coast District Council,,-40.8158084,175.1887903,Risk Management Programme - Eggs,No,,Eggs,,2021-11-16,,,
66666/01,Mega NHS Pharmaceutical Limited,"12 Harbour Ridge Drive, Wiri",Auckland,Auckland Council,,-37.0124604,174.8409002,Risk Management Programme - Custom,No,,"Animal products (non-dairy), Bee products, Bivalve molluscan shellfish, Colostrum products, Dairy products, Fats/oils, Fish, Milk powders, Non-AP, Nutritional powders excl IF & FOF, Red meat, Speciality powders, Whey products",,2023-02-17,,,
7474/01,Jersey Girl Organics Limited,"1704/1682 Old Te Aroha Road, Gordon",Matamata,Matamata-Piako District Council,,0.0,0.0,Risk Management Programme - Farm dairies - Export eligible milk,No,,Dairy material,,2023-09-25,,,
7762/01,Rivercity Honey Limited,"749 Longacre Road, Okoia",Wanganui,Whanganui District Council,,-39.886189,175.1704166,Risk Management Programme - Bee products - Honey and dried pollen processing,No,,"Bee products, Beeswax, Honey",,2012-08-01,,,
7777/01,GMP Dairy Limited,"5-7 Averton Place, East Tamaki",Auckland,Auckland Council,,-36.9454467,174.8792798,Risk Management Programme - Custom,No,,"Animal products (non-dairy), Bee products, Casein, Caseinate, Colostrum products, Dairy products, Eggs, Fish, Follow-on formula, Gelatine, Hydrolysates, Infant formula, Milk powders, Non-AP, Nutritional powders excl IF & FOF, Speciality powders, Whey products",,2023-09-12,,,
7788/01,Bon Accord Products Limited,"22 Jomac Place, Avondale",Auckland,Auckland Council,,-36.8839312,174.6824113,Risk Management Programme - Custom,No,,"Dairy products, Speciality powders",,2015-10-20,,,
7792/01,PURE New Zealand Ice Cream Limited,78 Anderson Road,Wanaka,Queenstown-Lakes District Council,,-44.6875494,169.1444637,Risk Management Programme - Custom,No,,"Dairy material, Dairy products, Frozen milk products, Non-AP",,2021-10-28,,,
787/01,Synergy Nutrition Limited,"13 Aerovista Place, Wiri",Auckland,Auckland Council,,-36.9994057,174.8495491,Risk Management Programme - Custom,No,,"Animal products (non-dairy), Colostrum products, Dairy products, Follow-on formula, Infant formula, Milk powders, Milk proteins, Non-AP, Nutritional powders excl IF & FOF, Speciality powders, Whey products",,2022-08-31,,,
8008/01,New Zealand Dairy Collaborative Limited,9 Ashford Avenue,Ashburton,Ashburton District Council,,-43.8801524,171.7985,Risk Management Programme - Custom,No,,"Colostrum products, Dairy products, Milk powders, Nutritional powders excl IF & FOF, Speciality powders, Whey products",,2022-11-09,,,
802/01,Open Country Dairy Limited,12A Horotiu Road,TE KOWHAI,Waikato District Council,,-37.7346692,175.153352,Risk Management Programme - Custom,No,,"Dairy material, Dairy products, Milk & cream, Milk powders, Nutritional powders excl IF & FOF, Speciality powders",,2023-05-30,,,
8114/01,Alpha Laboratories (NZ) Limited,"48 Crooks Road, East Tamaki",Auckland,Auckland Council,,-36.9394622,174.89331,Risk Management Programme - Custom,No,,"Animal products (non-dairy), Bee products, Bivalve molluscan shellfish, Colostrum products, Dairy products, Deer Velvet, Fish, Follow-on formula, Infant formula, Milk powders, Non-AP, Nutritional powders excl IF & FOF, Poultry, Red meat, Speciality powders, Whey products",,2023-04-18,,,
818/01,Oceania Dairy Limited,Cooneys Road,GLENAVY,Waimate District Council,,0.0,0.0,Risk Management Programme - Custom,No,,"Dairy material, Dairy products, Follow-on formula, Infant formula, Milk powders, Nutritional powders excl IF & FOF, Speciality powders",,2023-06-29,,,
818F/01,Oceania Dairy Limited,Cooneys Road,GLENAVY,Waimate District Council,,0.0,0.0,Risk Management Programme - Custom,No,,"Colostrum, Dairy material",,2014-05-29,,,
8341/01,Next Drinks Limited,"Whakatu Industrial Park, 44 Johnston Way, Whakatu",Hastings,Hastings District Council,,0.0,0.0,Risk Management Programme - Custom,No,,"Dairy products, Milk & cream, Milk & cream based formulations, Non-AP",,2022-11-16,,,
837/01,Alpha Laboratories (NZ) Limited,"Unit C and E, 46 Cryers Road, East Tamaki",Auckland,Auckland Council,,0.0,0.0,Risk Management Programme - Stores - Cold and Dry,No,,"Animal products (non-dairy), Bee products, Dairy products, Non-AP",,2021-08-11,,,
8441284/01,Meat at Yours Limited,"354 Paraite Road,Bell Block",New Plymouth,New Plymouth District Council,,-39.0579916,174.1681019,Risk Management Programme - Micro Abattoir,No,,"Cattle, Farmed Deer, Farmed goats, Farmed pigs, Offal, Sheep",,2025-09-08,,,
858/01,Synlait Milk Limited,45 McDonald Road,Pokeno,Auckland Council,,0.0,0.0,Risk Management Programme - Custom,No,,"Dairy products, Follow-on formula, Infant formula, Milk & cream, Milk powders, Non-AP, Nutritional powders excl IF & FOF",,2023-08-22,,,
868/01,Synlait Milk Limited,"89 Richard Pearse Drive, Mangere",Auckland,Auckland Council,,-36.9860833,174.7798924,Risk Management Programme - Custom,No,,"Dairy products, Follow-on formula, Infant formula, Non-AP, Nutritional powders excl IF & FOF",,2023-08-17,,,
8888/01,GMP Pharmaceuticals Limited,"12 Averton Place, East Tamaki",Auckland,Auckland Council,,-36.946287,174.8791834,Risk Management Programme - Custom,No,,"Animal products (non-dairy), Bee products, Bivalve molluscan shellfish, Colostrum products, Dairy products, Deer Velvet, Eggs, Fish, Milk powders, Non-AP, Nutritional powders excl IF & FOF, Poultry, Speciality powders, Whey products",,2023-02-07,,,
8889/01,Suncare Nutrition (NZ) Limited,"10A Stonedon Drive, East Tamaki",Auckland,Auckland Council,,-36.931293,174.8843759,Risk Management Programme - Custom,No,,"Animal products (non-dairy), Bee products, Bivalve molluscan shellfish, Colostrum products, Dairy products, Deer Velvet, Eggs, Fish, Milk powders, Non-AP, Nutritional powders excl IF & FOF, Poultry, Red meat, Speciality powders, Whey products",,2022-11-08,,,
8988/01,Mataura Valley Milk Limited,"19 Pease Street, McNab",Gore,Gore District Council,,-46.0830413,168.9897001,Risk Management Programme - Farm dairies - Export eligible milk,No,,Dairy material,,2023-06-23,,,
8989/01,Mataura Valley Milk Limited,"19 Pease Street, McNab",Gore,Gore District Council,,-46.0830413,168.9897001,Risk Management Programme - Custom,No,,"Dairy material, Dairy products, Follow-on formula, Infant formula, Milk & cream, Milk powders, Nutritional powders excl IF & FOF, Speciality powders",,2023-05-11,,,
919/01,Kimberry Limited,"11/85 Onehunga Mall, Onehunga",Auckland,Auckland Council,,-36.913993,174.7842054,Risk Management Programme - Custom,No,,"Bee products, Dairy products, Non-AP",,2022-11-11,,,
9681/01,O2B Healthy Limited,"7 Elms Street, Stoke",Nelson,Nelson City Council,,0.0,0.0,Risk Management Programme - Custom,No,,"Animal products (non-dairy), Bee products other than honey, Bivalve molluscan shellfish, Colostrum products, Dairy products, Deer Co-products, Deer Velvet, Fish, Honey, Lactose, Milk powders, Milk proteins, Nutritional powders excl IF & FOF, Speciality powders, Whey products",,2020-05-25,,,
98MAK/01,London Street Butchery Limited,"98 Main Road, Makaraka",Gisborne,Gisborne District Council,,-38.6493768,177.9667396,Risk Management Programme - Dual operator butcher,No,,"Animal products (non-dairy), Red meat",,2016-11-08,,,
99PETS/01,99 Valley Investment Limited,[Private],Auckland,Auckland Council,,-36.9832291,174.8561414,Risk Management Programme - Custom,No,,"Animal products (non-dairy), Bivalve molluscan shellfish, Fish, Poultry, Red meat",,2024-04-23,,,
A040/01,Waitemata Honey Co Limited,"1249 East Coast Road, Redvale",Auckland,Auckland Council,,-36.6926847,174.7071489,Risk Management Programme - Bee products - Honey and dried pollen processing,No,,"Bee products, Beeswax, Honey",,2010-02-12,,,
A1EXBUTC22/01,Timburn Limited,48 Tarbert Street,Alexandra,Central Otago District Council,,-45.2499614,169.3967489,Risk Management Programme - Dual operator butcher,No,,"Animal products (non-dairy), Red meat",,2023-03-20,F.E.H.F Butchery,,
AA1/01,Go Snacks Limited,"1985 Moutere Highway, RD 2, Upper Moutere",Nelson,Nelson City Council,,0.0,0.0,Risk Management Programme - Custom,No,,"Eggs, Fish, Poultry, Red meat",,2021-03-19,,,
AAA001/01,AA Apiaries Limited,43 Walls Road,Waihi,Hauraki District Council,,0.0,0.0,Risk Management Programme - Bee products - Bulk honey storage,No,,"Bee products, Beeswax",,2019-09-06,,,
AABL17/01,All About Bees Limited,4/623 Whangaparaoa Road,WHANGAPARAOA,Auckland Council,,-36.63097,174.7641027,Risk Management Programme - Bee products - Bulk honey storage,No,,Bee products,,2017-12-06,,,
AAHONEY3/01,Heaphy Honey Limited,"52 Gillies Road, RD 1",Collingwood,Tasman District Council,,0.0,0.0,Risk Management Programme - Bee products - Honey and dried pollen processing,No,,"Bee products, Beeswax, Honey",,2019-11-12,,,
AAL5/02,Direct Connect Container Services Limited,"53 Gilberd Street, Castlecliff",Wanganui,Whanganui District Council,,-39.9499304,175.0124498,Risk Management Programme - Stores - Cold and Dry,No,,"Animal products (non-dairy), Dairy products, Non-AP",,2020-11-19,Ali Arc Logistics,,
AB1/01,Glenn Brown & Kirsten Brown Partnership,"601 Gladstone Road, Te Hapara",Gisborne,Gisborne District Council,,-38.6543926,178.0059278,Risk Management Programme - Dual operator butcher,No,,"Animal products (non-dairy), Red meat",,2005-06-17,Farm Meats 2008,,
AB15/01,Freshpork New Zealand Limited,Pacific Street,Timaru,Timaru District Council,,-44.3776604,171.2465617,Risk Management Programme - Custom,No,,"Animal products (non-dairy), Blood, Casings, Farmed pigs, Green runners, Offal, Red meat",,2023-03-23,,,
AB32/01,Ashburton Meat Processors Limited,170 Bridge Street,Ashburton,Ashburton District Council,,-43.8932045,171.7785366,Risk Management Programme - Custom,No,,"Animal products (non-dairy), Cattle, Farmed goats, Farmed pigs, Foetal Blood, Foetal tissue, Offal, Red meat, Sheep",,2022-06-09,,,
AB52/04,Wilson Hellaby Limited,181 Ruakura Road,Hamilton,Hamilton City Council,,-37.7729673,175.3284258,Risk Management Programme - Custom,No,,"Farmed pigs, Green offal, Green runners, Hides & Skins, Red meat, Red offals",,2016-10-03,Ruakura Meat Processors,,
AB78/01,Kintyre Meats Limited,"530 Gladstone Road, RD 2,Gladstone",Carterton,Carterton District Council,,0.0,0.0,Risk Management Programme - Custom,No,,"Animal products (non-dairy), Farmed goats, Farmed pigs, Green runners, Hides & Skins, Red meat, Sheep, Wool - fibre",,2003-09-22,,,
AB78/02,Kintyre Meats Limited,"530 Gladstone Road, RD 2,Gladstone",Carterton,Carterton District Council,,0.0,0.0,Risk Management Programme - Custom,No,,"Blood & bone meal, Dried blood, Meat & bone meal, Meat meal, Tallow",,2024-09-30,,,
AB81/01,Harris Farms Limited,150 Hurunui Mouth Road,Cheviot,Hurunui District Council,,0.0,0.0,Risk Management Programme - Custom,No,,"Blood, Cattle, Farmed goats, Farmed pigs, Green runners, Hides & Skins, Red meat, Sheep",,2023-03-17,,,
ABI01/01,ABI Trading Limited,"Unit 2A, 89 Ellice Road, Wairau Valley",Auckland,Auckland Council,,0.0,0.0,Risk Management Programme - Stores - Cold and Dry,No,,"Animal products (non-dairy), Bee products, Dairy products, Fats/oils, Non-AP",,2023-09-18,,,
ABS2/01,Active Beeshine Limited,"471/1 Sainsbury Drive, RD 6",Te Awamutu,Waipa District Council,,0.0,0.0,Risk Management Programme - Bee products - Honey and dried pollen processing,No,,"Bee products, Beeswax, Honey",,2019-03-08,,,
ABW01/01,The Real Meal Company Limited,"Unit 3, 26 McMahon Street, Stoke",Nelson,Nelson City Council,,0.0,0.0,Risk Management Programme - Custom,No,,"Animal products (non-dairy), Bee products, Bivalve molluscan shellfish, Dairy products, Eggs, Fish, Milk & cream based formulations, Non-AP, Poultry, Red meat",,2022-11-14,Real Meals,,
ACFSCHC01/01,ACFS Port Logistics NZ Limited,"Detroit Drive,Rolleston",Christchurch,Christchurch City Council,,0.0,0.0,Risk Management Programme - Stores - Cold and Dry,No,,"Animal products (non-dairy), Dairy products, Non-AP",,2025-08-04,,,
AEGISFARM1/01,Aegis Enterprises Limited,"74 Waller Road,RD3",Pukekohe,Auckland Council,,0.0,0.0,Risk Management Programme - Eggs,No,,Eggs,,2023-11-14,Aegis Farm,,
AENZ01/01,Alpine Export NZ Limited,"166 Works Road, Longburn",Palmerston North,Palmerston North City Council,,-40.3921479,175.5439006,Risk Management Programme - Custom,No,,"Animal products (non-dairy), Fish, Poultry, Red meat",,2023-07-26,,,
AF01/01,Addiction Foods NZ Limited,240 Jellicoe Street,Te Puke,Western Bay Of Plenty District Council,,-37.7793311,176.3142193,Risk Management Programme - Custom,No,,"Animal products (non-dairy), Bivalve molluscan shellfish, Fish, Hides & Skins, Possums, Poultry, Red meat",,2021-08-04,,,
AF03/01,Addiction Foods NZ Limited,"5 Ashley Place, Papamoa Beach",Papamoa,Tauranga City Council,,-37.7154941,176.3157496,Risk Management Programme - Stores - Cold and Dry,No,,Animal products (non-dairy),,2022-01-31,,,
AFCV1/01,Align Farms Limited,"2581 Hackthorne Road,Westerfield",Ashburton,Ashburton District Council,,-43.7939531,171.6030203,Risk Management Programme - Farm dairies - Domestic supply,No,,Dairy material,,2025-04-01,,,
AFM1/01,Auckland Fish Market Limited,"Cnr Madden Street & Daldy Street, Freemans Bay",Auckland,Auckland Council,,0.0,0.0,Risk Management Programme - Custom,No,,"Bivalve molluscan shellfish, Crustaceans (including rock lobsters), Eels, Fish, Kina, Squid & other cephalopods",,2022-12-01,,,
AGLMH1/01,Apis Gold Limited,"1066 State Highway 29, Tauriko",Tauranga,Tauranga City Council,,-37.7533878,176.0790559,Risk Management Programme - Bee products - Honey and dried pollen processing,No,,"Animal products (non-dairy), Bee products, Beeswax, Comb honey, Honey",,2006-06-12,Mossop's Honey,,
AGOATS1/01,Aroha Goats Limited,"49 McKinley Road, RD 1",TE AROHA WEST,Matamata-Piako District Council,,0.0,0.0,Risk Management Programme - Farm dairies - Export eligible milk,No,,Dairy material,,2022-12-08,,,
AGORA1/01,Blue Water Products Limited,4 Wharf Street,Dunedin,Dunedin City Council,,-45.8838421,170.5051663,Risk Management Programme - Dual operator butcher,No,,"Animal products (non-dairy), Poultry, Red meat",,2010-08-13,Agora,,
AGS1/01,Silson Apiaries Limited,"113 Lund Road, RD 2",Katikati,Far North District Council,,0.0,0.0,"Risk Management Programme - Bee products - Honey and dried pollen processing, Stores - Cold and Dry",No,,"Animal products (non-dairy), Bee products, Beeswax, Honey",,2021-08-11,,,
AH1/01,Netherby Meats Limited,212 Chalmers Avenue,Ashburton,Ashburton District Council,,-43.9114957,171.7497206,Risk Management Programme - Dual operator butcher,No,,"Animal products (non-dairy), Poultry, Red meat",,2005-08-24,,,
AHB06/01,Arataki Honey Limited,66 Arataki Road,Havelock North,Central Hawkes Bay District Council,,-39.6650319,176.9067524,Risk Management Programme - Bee products - Honey and dried pollen processing,No,,"Bee products, Beeswax, Comb honey, Honey, Pollen",,2020-03-25,,,
AHB07/01,Arataki Honey Limited Hawkes Bay Division,"115 Thompson Road, RD 2",Hastings,Hastings District Council,,0.0,0.0,Risk Management Programme - Stores - Cold and Dry,No,,"Animal products (non-dairy), Bee products",,2008-03-13,,,
AHB08/01,Arataki Honey Limited,31 Miller Road,Havelock North,Hastings District Council,,0.0,0.0,Risk Management Programme - Stores - Cold and Dry,No,,Bee products,,2008-03-12,,,
AIRBORNE4/01,Airborne Honey Limited,41 Pennington Street,Leeston,Selwyn District Council,,0.0,0.0,Risk Management Programme - Bee products - Honey and dried pollen processing,No,,"Bee products, Comb honey, Honey",,2020-01-21,,,
AIRPORT01/01,Airport Farm Trustee Limited,58 Airport Drive,New Plymouth,New Plymouth District Council,,-39.0235716,174.1722659,Risk Management Programme - Chicken producers,No,,Broiler (meat) chickens,,2023-10-30,Airport Farm,,
AKAROA2/01,Ahi Mokopuna Limited Partnership,89 Treffers Road,Christchurch,Christchurch City Council,,-43.5484776,172.5751267,Risk Management Programme - Custom,No,,"Animal products (non-dairy), Farmed fish, Fish, Non-AP",,2023-07-03,,,
AKD2007/01,YLH Farm Limited,71 Douglas Road,Pollok,Auckland Council,,-37.183085,174.6190769,Risk Management Programme - Chicken producers,No,,Broiler (meat) chickens,,2024-06-26,,,
AKD2008/01,H & P Farms Limited,"56 Furniss Road, RD3, Waiuku",Auckland,Auckland Council,,0.0,0.0,Risk Management Programme - Chicken producers,No,,Broiler (meat) chickens,,2023-10-24,,,
AKD2011/01,Ashley Limited,106 Garvie Road,HUNUA,Auckland Council,,0.0,0.0,Risk Management Programme - Chicken producers,No,,Broiler (meat) chickens,,2023-11-13,,,
AKD2018/01,DD Investments Limited,"57 Smeed Road, RD4, Tuakau",Auckland,Auckland Council,,0.0,0.0,Risk Management Programme - Chicken producers,No,,Broiler (meat) chickens,,2023-10-11,,,
AKD2021/01,DYH & HSH Family Trust,"118 Motu Road, RD1, Kumeu",Auckland,Auckland Council,,0.0,0.0,Risk Management Programme - Chicken producers,No,,Broiler (meat) chickens,,2023-10-04,Ha's Farm,,
AKD2024/01,BJ & RD Stephens Farm Partnership,"75 Patumahoe Road,Patumahoe",Auckland,Auckland Council,,-37.1886955,174.8361393,Risk Management Programme - Chicken producers,No,,Broiler (meat) chickens,,2023-10-24,,,
AKD2025/01,Wolfe Enterprise Limited,"111 Garvie Road,Hunua",Papakura,Auckland Council,,0.0,0.0,Risk Management Programme - Chicken producers,No,,Broiler (meat) chickens,,2024-01-04,,,
AKD2033/01,Greengrove Limited,"43 Tawa Road,RD1",Kumeu,Auckland Council,,0.0,0.0,Risk Management Programme - Chicken producers,No,,Broiler (meat) chickens,,2023-10-27,,,
AKD2034/01,Dunvegan Poultry Limited,"98A Wilson Road, RD3, Hunua,Hunua",Auckland,Auckland Council,,0.0,0.0,Risk Management Programme - Chicken producers,No,,Broiler (meat) chickens,,2023-10-26,,,
AKD2039/01,Wang Yan,[Private],Auckland,Auckland Council,,-36.9832291,174.8561414,Risk Management Programme - Chicken producers,No,,Broiler (meat) chickens,,2023-10-24,,,
AKD2040/01,Parakai Birds Limited,"178 Fordyce Road, RD1, Helensville",Auckland,Auckland Council,,0.0,0.0,Risk Management Programme - Chicken producers,No,,Broiler (meat) chickens,,2023-10-11,,,
AKD2042/01,Golden Lion Limited,"53 Old Railway Road, Kumeu, RD2",Auckland,Auckland Council,,0.0,0.0,Risk Management Programme - Chicken producers,No,,Broiler (meat) chickens,,2023-10-11,,,
AKLP1/01,Freedom Town Limited,"27 Angle Street, Onehunga",Auckland,Auckland Council,,0.0,0.0,Risk Management Programme - Custom,No,,"Chickens, Ducks, Poultry",,2020-09-22,Auckland Poultry,,
ALBPH1/01,Agri-Lab Co-Products Limited,9 Hatuma Road,Waipukurau,Central Hawkes Bay District Council,,-39.9931688,176.5341596,Risk Management Programme - Custom,No,,"Animal products (non-dairy), Bee products, Beeswax, Bivalve molluscan shellfish, Colostrum products, Dairy products, Deer Co-products, Deer Velvet, Dried pollen, Eggs, Fish, Frozen milk products, Non-AP, Offal, Possums, Poultry, Red meat",,2021-07-06,,,
ALFAPET01/01,Azure Group Limited,"515C Mt Wellington Highway, Mt Wellington",Auckland,Auckland Council,,-36.9272091,174.840256,Risk Management Programme - Custom,No,,"Animal products (non-dairy), Bee products, Bivalve molluscan shellfish, Deer Velvet, Fish, Poultry, Red meat",,2016-03-31,Alfa Pet,,
ALG1/01,Alliance Logistics Group Limited,2 Aruhe Road,Christchurch,Christchurch City Council,,-43.5537832,172.5029795,Risk Management Programme - Stores - Cold and Dry,No,,"Animal products (non-dairy), Bee products, Dairy products, Fats/oils, Non-AP, Other animal products",,2024-09-02,,,
ALLAN01/01,Waiuku Free Range Eggs & Livestock Limited,"41 Rasmussen Road, Aka Aka",Waiuku,Auckland Council,,0.0,0.0,Risk Management Programme - Eggs,No,,Eggs,,2023-09-11,,,
ALSTRA01/01,Alstra (2012) Limited,"38b River Road,Ngaruawahia",Ngaruawahia,Hamilton City Council,,-37.6724363,175.1658887,Risk Management Programme - Chicken producers,No,,"Breeder chickens, Fertile eggs",,2023-10-31,,,
AMPLH168/01,Aotearoa Marine Products Limited,"21C Ben Lomond Crescent, Pakuranga Heights",Auckland,Auckland Council,,-36.9164423,174.8990694,Risk Management Programme - Custom,No,,"Animal products (non-dairy), Fish, Paua, Sea Cucumber",,2023-10-10,YuPin Ling Maw,,
ANSONSEGG1/01,Ansons Eggs Limited,"553 Ansons Road,RD1",Darfield,Selwyn District Council,,0.0,0.0,Risk Management Programme - Eggs,No,,"Eggs, Layer chickens",,2024-06-12,,,
AORAKI8/01,Mount Cook Alpine Salmon Limited,552 McLeans Island Road,Christchurch,Christchurch City Council,,-43.4688977,172.5102845,Risk Management Programme - Custom,No,,"Farmed fish, Fish, Non-AP",,2022-03-18,,,
API13/01,Apihealth New Zealand Limited,"52B Stonedon Drive, East Tamaki",Auckland,Auckland Council,,-36.931293,174.8843759,Risk Management Programme - Bee products - Honey and dried pollen processing,No,,"Bee products, Honey",,2013-09-19,,,
APIFLORA2/01,Apiflora New Zealand Limited,"1502 State Highway 29, Lower Kaimai",Tauranga,Tauranga City Council,,0.0,0.0,Risk Management Programme - Bee products - Honey and dried pollen processing,No,,"Bee products, Beeswax, Honey",,2006-06-19,,,
APIFLORA3/01,Apiflora New Zealand Limited,"14 Porutu Place, The Lakes, Tauriko",Tauranga,Tauranga City Council,,-37.7401551,176.1003312,Risk Management Programme - Bee products - Bulk honey storage,No,,Bee products,,2013-03-18,,,
AQF02/01,Aquafresh Products Limited,83 Vanguard Street,Nelson,Nelson City Council,,-41.2762852,173.2770318,Risk Management Programme - Custom,No,,"Animal products (non-dairy), Bivalve molluscan shellfish, Farmed fish, Fish, Squid & other cephalopods",,2022-09-19,,,
AQUARIUS1/01,David Charles Olsen,"Paparore Road, RD 1",Awanui,Far North District Council,,0.0,0.0,Risk Management Programme - Custom,No,,"Animal products (non-dairy), Bivalve molluscan shellfish, Fish",,2013-10-16,Aquarius Fisheries,,
ARAMEX1/01,Aramex Linehaul Limited,"Shed 5, Level 1, Lever Street, Ahuriri",Napier,Napier City Council,,0.0,0.0,Risk Management Programme - Transport - Animal material and animal products,No,,Animal products (non-dairy),,2023-10-04,,,
ARATAKI2/01,Arataki Honey Limited,"2488 State Highway 5, Waiotapu",Rotorua,Rotorua Lakes Council,,-38.3404728,176.3632775,Risk Management Programme - Bee products - Honey and dried pollen processing,No,,"Bee products, Beeswax, Comb honey, Honey, Pollen",,2019-10-14,,,
AROMA35/01,Aroma (N.Z.) Limited,12 Senior Place,Christchurch,Christchurch City Council,,-43.5300633,172.69496,Risk Management Programme - Custom,No,,"Animal products (non-dairy), Bee products, Bivalve molluscan shellfish, Deer Velvet, Eggs, Fish, Poultry, Red meat",,2023-06-30,,,
AROMA4/01,Aroma (N.Z.) Limited,1 Rangitane Drive,Havelock,Marlborough District Council,,-41.2814405,173.7714284,Risk Management Programme - Custom,No,,"Animal products (non-dairy), Bivalve molluscan shellfish",,2019-10-23,,,
ARRON123/01,KV Butchers limited,"86E, Main Road",Kumeu,Auckland Council,,-36.7760153,174.5560299,Risk Management Programme - Dual operator butcher,No,,"Animal products (non-dairy), Poultry, Red meat",,2024-02-14,Kumeu Village Butchery,,
ATAWHAI11/01,Juniper Hill Limited,"328 Turamoe Road,RD11",Hastings,Hastings District Council,,-39.6874101,176.7551483,Risk Management Programme - Micro Abattoir,No,,"Cattle, Farmed Deer, Offal",,2023-11-14,Juniper Hill Farm,,
ATHP1/01,Abel Tasman Honey and Pollination Limited,"311 Main Road,Riwaka",Motueka,Tasman District Council,,-41.0914746,173.0004168,Risk Management Programme - Bee products - Honey and dried pollen processing,No,,"Bee products, Comb honey, Honey",,2025-09-01,,,
ATNN030/01,Agri Trading Limited,156 Campbell Road,Winton,Southland District Council,,-46.1117432,168.3156934,Risk Management Programme - Eggs,No,,Eggs,,2023-10-09,Nectar & Nest,,
ATP1/01,Future Ascent Limited,"75 Henry Road, RD 1",Taupiri,Waikato District Council,,0.0,0.0,Risk Management Programme - Custom,No,,"Poultry, Red meat",,2023-09-19,,,
AVL1/01,A Verkerk Limited,"94 Vagues Road, Papanui",Christchurch,Christchurch City Council,,-43.4856067,172.6099689,Risk Management Programme - Custom,No,,"Red meat, UCFM",,2020-11-10,,,
AWAI01/01,Jorgie4 Limited,[Private],New Plymouth,New Plymouth District Council,,0.0,0.0,Risk Management Programme - Chicken producers,No,,Broiler (meat) chickens,,2023-10-26,Awai Valley Farm,,
AZE1/01,AZ Enterprises Limited,"1319 Alfriston Road,Manurewa",Auckland,,,-37.02145,174.9047237,Risk Management Programme - Micro Abattoir,No,,"Cattle, Farmed goats, Red offals, Sheep",,2025-06-05,,,
AZIS2624/01,Azi's Global Investments Limited,"25 Landing Drive,Mangere",Auckland,Auckland Council,,-36.9878656,174.776154,Risk Management Programme - Stores - Cold and Dry,No,,"Animal products (non-dairy), Bee products, Beeswax, Dairy products, Fats/oils, Hides & Skins, Non-AP, Other animal products, Tallow, Wool - fibre",,2023-07-25,,,
AZMEAT01/01,AZ Investments 2024 Limited,"1309 Alfriston Road,RD1",Auckland,Auckland Council,,0.0,0.0,Risk Management Programme - Dual operator butcher,No,,"Animal products (non-dairy), Red meat, Red offals",,2025-10-07,Ali/Julz Fresh Meats,,
AZURE01/01,Azure Group Limited,"494 No.10 Road, Swannanoa",Rangiora,Waimakariri District Council,,0.0,0.0,Risk Management Programme - Custom,No,,"Animal products (non-dairy), Bivalve molluscan shellfish, Dairy products, Deer Velvet, Fish, Insects, Poultry, Red meat",,2023-05-19,Alfa Pet,,
B2H/01,Oxford Free Range Eggs Limited,"605 Poyntzs Road, Eyrewell Forest",West Eyreton,Waimakariri District Council,,0.0,0.0,Risk Management Programme - Eggs,No,,Eggs,,2021-12-13,,,
BACK2/01,Back Country Manuka Limited,"89 McHardie Road, RD 1",Bulls,Rangitikei District Council,,0.0,0.0,Risk Management Programme - Bee products - Honey and dried pollen processing,No,,"Bee products, Beeswax, Honey",,2023-08-24,,,
BAL01/01,Butchers Apron Limited,83 Thorp Road,Paeroa,Hauraki District Council,,-37.4184021,175.6815867,Risk Management Programme - Dual operator butcher,No,,"Animal products (non-dairy), Red meat",,2020-12-02,,,
BAOHO168/01,Bao Ho Trading Limited,"6D Harris Road,East Tamaki",Auckland,Auckland Council,,-36.9423122,174.8927848,Risk Management Programme - Custom,No,,"Animal products (non-dairy), Bivalve molluscan shellfish, Deer Co-products, Deer Velvet, Fish, Red meat",,2025-03-28,,,
BARHAM412/01,Vivienne K Barham & Kambel E Barham,412 Kahutara Road,Featherston,South Wairarapa District Council,,0.0,0.0,Risk Management Programme - Bee products - Honey and dried pollen processing,No,,Bee products,,2020-08-24,V & K Barham Partnership,,
BARK01/01,The Barkery Limited,382 Great South Road,Huntly,Waikato District Council,,-37.5668797,175.1584309,Risk Management Programme - Custom,No,,"Animal products (non-dairy), Fish, Poultry, Red meat",,2023-08-07,,,
BARRIE09/01,Barries Honey Limited,"Flatman Road, RD 21",Geraldine,Timaru District Council,,0.0,0.0,Risk Management Programme - Bee products - Honey and dried pollen processing,No,,"Bee products, Beeswax, Honey",,2013-07-17,,,
BARRYSBAY1/01,Barrys Bay Dairy Company Limited,5807 Christchurch-Akaroa Road,DUVAUCHELLE,Christchurch City Council,,-43.7613473,172.9114002,Risk Management Programme - Dairy - Cheese domestic supply,No,,"Dairy products, Firm and hard cheese (MSNF < 60%), Soft & semi-soft cheese (MSNF > 60%)",,2021-11-09,,,
BARSONPF25/01,Barson Distributors 2024 Limited,"112 Cross Road, RD 8",Christchurch,Christchurch City Council,,0.0,0.0,Risk Management Programme - Custom,No,,"Bobby calves, Cattle, Farmed Deer, Farmed goats, Hides & Skins, Horses (includes mules, donkeys & hinnies), Red meat, Sheep",,2022-10-25,,,
BARTON3/01,Barton Holdings Limited,"150 Wortley Road, Lepperton",New Plymouth,New Plymouth District Council,,-39.0805563,174.2101697,Risk Management Programme - Bee products - Honey and dried pollen processing,No,,"Bee products, Beeswax, Honey",,2023-03-15,,,
BASECAMP2/01,Basecamp 2019 Limited,"38 Grammer Road,RD3,Tahawai",Katikati,Far North District Council,,0.0,0.0,Risk Management Programme - Dual operator butcher,No,,Red meat,,2023-02-02,,,
BASESTORE1/01,Base Logistics Limited,"114 Building 3C, Kaimanawa Street",Palmerston North,Palmerston North City Council,,0.0,0.0,Risk Management Programme - Stores - Cold and Dry,No,,"Animal products (non-dairy), Bee products, Non-AP",,2020-09-23,,,
BB2/01,Bottings Butchery Balclutha Limited,188 Clyde Street,Balclutha,Clutha District Council,,-46.2379706,169.7385655,Risk Management Programme - Dual operator butcher,No,,"Animal products (non-dairy), Red meat",,2011-02-07,,,
BB22/01,Beard Brothers Limited,"116 Stonycroft Street, Camberly",Hastings,Hastings District Council,,0.0,0.0,Risk Management Programme - Dual operator butcher,No,,"Animal products (non-dairy), Poultry, Red meat",,2022-06-30,,,
BBL1/01,C & S Orlowski Limited,50 Centre Street,Invercargill,Invercargill City Council,,-46.4224078,168.3732236,Risk Management Programme - Dual operator butcher,No,,"Animal products (non-dairy), Poultry, Red meat",,2018-05-25,,,
BBLOCK2016/01,The Butchers Block Wanaka Limited,33 Reece Crescent,Wanaka,Queenstown-Lakes District Council,,-44.6908599,169.1435399,Risk Management Programme - Dual operator butcher,No,,"Animal products (non-dairy), Red meat",,2016-03-24,,,
BBM19/01,Glen Edward Claridge,"27 Bulleid Road, RD 18C",Oamaru,Waitaki District Council,,0.0,0.0,"Risk Management Programme - Dairy - Liquid milk domestic supply, Farm dairies - Domestic supply",No,,"Dairy material, Dairy products, Milk & cream",,2022-12-21,The Natural Dairy,,
BBP11/01,MP Biomedicals New Zealand Limited,"37-39 Waipareira Avenue, Henderson",Auckland,Auckland Council,,-36.8659728,174.6323938,Risk Management Programme - Custom,No,,Animal products (non-dairy),,2019-09-23,,,
BBP14/03,New Zealand Pharmaceuticals Limited,"68 Weld Street, RD 2",Palmerston North,Palmerston North City Council,,0.0,0.0,Risk Management Programme - Custom,No,,"Animal products (non-dairy), Red meat",,2020-12-08,,,
BBP7/01,Global Life Sciences Solutions New Zealand,"433 Old Highway, RD 8",Tauranga,Tauranga City Council,,0.0,0.0,Risk Management Programme - Custom,No,,Animal products (non-dairy),,2019-12-09,,,
BC01/01,Bay Cuisine Limited,"70 Dunlop Road, Onekawa",Napier,Napier City Council,,-39.5005316,176.8880566,Risk Management Programme - Custom,No,,"Non-AP, Poultry, Red meat",,2022-10-06,,,
BCD1/01,Big Chill Distribution Limited,"28 Pukekiwiriki Place, Highbrook, East Tamaki",Auckland,Auckland Council,,-36.9446571,174.8718538,Risk Management Programme - Stores - Cold and Dry,No,,Animal products (non-dairy),,2023-09-11,,,
BCD2/01,Big Chill Distribution Limited,"8 Te Ipukura Street, Hillcrest",Hamilton,Hamilton City Council,,0.0,0.0,Risk Management Programme - Stores - Cold and Dry,No,,"Animal products (non-dairy), Bee products, Dairy products, Non-AP",,2023-10-03,,,
BCSBEES2/01,BCS Apiaries Limited,"73 Te Manu Road, Ngongotaha Valley",Rotorua,Rotorua Lakes Council,,-38.1447763,176.1697014,Risk Management Programme - Bee products - Bulk honey storage,No,,Bee products,,2022-05-09,,,
BDH535/01,Boondock Honey Co Limited,535 No 3 Road,Te Puke,Western Bay Of Plenty District Council,,-37.8202946,176.2935492,Risk Management Programme - Bee products - Bulk honey storage,No,,"Bee products, Beeswax, Honey",,2014-04-09,,,
BEACH1/01,London Street Butchery Limited,"19 London Street, Kaiti",Gisborne,Gisborne District Council,,-38.6754383,178.0399529,Risk Management Programme - Dual operator butcher,No,,"Animal products (non-dairy), Red meat",,2022-09-21,,,
BEEBUZZ10/01,Bee Buzz Apiaries Limited,"120 Sales Road, RD 1",Oxford,Waimakariri District Council,,0.0,0.0,Risk Management Programme - Bee products - Honey and dried pollen processing,No,,"Bee products, Beeswax, Honey",,2019-04-05,,,
BEEJJ16/01,Bee Active Apiaries Limited,"794 Mahuta Road, RD 1",Dargaville,Kaipara District Council,,0.0,0.0,Risk Management Programme - Bee products - Bulk honey storage,No,,Honey,,2020-02-18,,,
BEELENT1/01,Beelieve Enterprises Limited,826 Oropi Road,Tauranga,Tauranga City Council,,-37.7337103,176.1429663,Risk Management Programme - Bee products - Bulk honey storage,No,,"Bee products, Beeswax",,2022-12-13,,,
BEELINE101/01,Beeline Apiaries Limited,32 Otewa Road,Otorohanga,Otorohanga District Council,,-38.1935736,175.212005,Risk Management Programme - Bee products - Honey and dried pollen processing,No,,"Bee products, Beeswax, Comb honey, Honey, Pollen",,2009-10-21,,,
BEENO1/01,Settlers Honey Limited,"395 Taumatatahi Road, Waitotara Valley",Wanganui,Whanganui District Council,,0.0,0.0,Risk Management Programme - Bee products - Honey and dried pollen processing,No,,"Bee products, Beeswax, Honey",,2018-04-26,,,
BEENO2/01,Settlers Honey Limited,"539 Taumatatahi Road, Waitotara Valley",Wanganui,Whanganui District Council,,0.0,0.0,Risk Management Programme - Bee products - Honey and dried pollen processing,No,,"Bee products, Comb honey",,2022-06-20,,,
BEENO3/01,Knopfhoney Limited (in receivership),22 Rowes Road,Hunterville,Rangitikei District Council,,-39.9101761,175.6445022,Risk Management Programme - Bee products - Honey and dried pollen processing,No,,"Animal products (non-dairy), Bee products, Beeswax, Honey",,2022-08-30,,,
BEENZ2/01,BeeNZ Limited,"85 Tetley Road, RD 2",Katikati,Far North District Council,,0.0,0.0,Risk Management Programme - Custom,No,,"Bee products, Beeswax",,2022-10-21,,,
BEESRUS2/01,Stephen Robert Black & Fiona Black,77 Leith Road,Okato,New Plymouth District Council,,-39.1757623,173.8878516,Risk Management Programme - Bee products - Honey and dried pollen processing,No,,"Bee products, Beeswax, Comb honey, Dried pollen, Honey",,2018-05-08,,,
BEESTORE1/01,Settlers Honey Limited,"459 Heads Road, Castlecliff",Wanganui,Whanganui District Council,,-39.9448323,175.0000517,Risk Management Programme - Bee products - Bulk honey storage,No,,Bee products,,2023-06-12,,,
BELKEE222/01,D.J.H Trade Company Limited,"29B Paramount Drive, Henderson",Auckland,Auckland Council,,-36.8551002,174.6337918,Risk Management Programme - Custom,No,,Fish,,2014-12-10,,,
BELLE01/01,Rodrigue Family Farm,7 McLeod Road,Waipu,Whanganui District Council,,-35.9418405,174.4340076,"Risk Management Programme - Dairy - Cheese domestic supply, Farm dairies - Domestic supply",No,,"Dairy material, Dairy products, Fermented milk products, Firm and hard cheese (MSNF < 60%), Milk & cream, Soft & semi-soft cheese (MSNF > 60%)",,2023-01-12,Belle Chevre Creamery,,
BELLSHON2/01,Mackenzie Country Honey Limited,5 North West Arch,Twizel,Mackenzie District Council,,-44.2462353,170.0882172,Risk Management Programme - Bee products - Honey and dried pollen processing,No,,"Bee products, Beeswax, Comb honey, Honey",,2023-05-18,,,
BELMONT26/01,RB & HM Weston Family Trust Partnership,[Private],New Plymouth,New Plymouth District Council,,0.0,0.0,Risk Management Programme - Chicken producers,No,,Broiler (meat) chickens,,2023-10-04,,,
BENWAI95/01,Nightlight Limited,East Road,Otematata,Waitaki District Council,,0.0,0.0,Risk Management Programme - Bee products - Honey and dried pollen processing,No,,"Bee products, Beeswax, Comb honey, Honey",,2006-06-29,,,
BFL3/01,Buksh Farms Limited,"92 Totara Road,Ararimu",Auckland,Auckland Council,,-37.1646882,175.0345548,"Risk Management Programme - Chicken producers, Eggs",No,,"Eggs, Layer chickens, Rearer laying chickens",,2024-06-13,Bombay Hills Eggs,,
BI3/01,"West, SD & CML",29 West Road,OHAUPO,Waipa District Council,,-37.9062317,175.3207011,Risk Management Programme - Bee products - Honey and dried pollen processing,No,,"Bee products, Beeswax, Honey, Non-AP, Propolis",,2023-04-12,Bees Inn,,
BIGREDS93/01,Big Reds Butchery Limited,479 Tay Street,Invercargill,Invercargill City Council,,-46.4097364,168.3789218,Risk Management Programme - Dual operator butcher,No,,"Animal products (non-dairy), Red meat",,2009-10-02,,,
BIOMER04/01,Bio-Mer Limited,38 Sonter Road,Christchurch,Christchurch City Council,,-43.5488613,172.5669318,Risk Management Programme - Custom,No,,"Animal products (non-dairy), Bee products, Bivalve molluscan shellfish, Deer Velvet, Fish, Non-AP, Paua, Red meat, Sea Cucumber",,2020-01-21,,,
BIOPHIVE01/01,Biophive Limited,101 Kawakawa Road,Feilding,Manawatu District Council,,-40.2475601,175.5360308,Risk Management Programme - Custom,No,,"Animal products (non-dairy), Bivalve molluscan shellfish, Deer Velvet, Fish, Poultry, Red meat",,2023-01-25,,,
BIOTEC01/01,Biotec Solutions Limited,"78 Ascot Road, Mangere",Auckland,Auckland Council,,-36.9719023,174.7789535,Risk Management Programme - Stores - Cold and Dry,No,,Animal products (non-dairy),,2022-05-27,,,
BKH1/01,Bees Knees Honey Limited,177 Hupara Road,Pakaraka,Far North District Council,,-35.3575345,173.9851982,Risk Management Programme - Bee products - Honey and dried pollen processing,No,,"Bee products, Beeswax, Comb honey, Honey, Pollen",,2021-07-30,,,
BL2015/01,Brenics Limited,"62 Waterloo Road, Hornby",Christchurch,Christchurch City Council,,-43.5373903,172.5409304,Risk Management Programme - Stores - Cold and Dry,No,,"Animal products (non-dairy), Dairy products, Non-AP",,2020-10-01,,,
BLLTGA01/01,Booths Logistics Limited,112 Aviation Avenue,Mt Maunganui,Tauranga City Council,,-37.6709879,176.2097007,Risk Management Programme - Stores - Cold and Dry,No,,"Animal products (non-dairy), Bee products, Dairy products, Fats/oils, Hides & Skins, Non-AP, Other animal products",,2025-09-01,Booths Logistics - Tauranga Branch,,
BLUERIDGE1/01,D & A Farms Limited,[Private],Walton,Matamata-Piako District Council,,0.0,0.0,Risk Management Programme - Chicken producers,No,,Broiler (meat) chickens,,2023-10-31,Blueridge Free Range,,
BMH1/01,Bee My Honey Limited,251 Tancreds Road,Lincoln,Selwyn District Council,,-43.6364582,172.5229009,"Risk Management Programme - Bee products - Honey and dried pollen processing, Custom",No,,"Bee products, Beeswax, Comb honey, Honey, Non-AP",,2019-09-09,,,
BO308/01,TillyFour Farm Limited,"308B Waterloo Road,Hornby",Christchurch,Christchurch City Council,,-43.5406924,172.5145114,Risk Management Programme - Dual operator butcher,No,,"Animal products (non-dairy), Poultry, Red meat",,2025-06-17,Black Origin,,
BOIHS2013/01,Bay of Islands Honey Shop Limited,414 Kerikeri Road,Kerikeri,Western Bay Of Plenty District Council,,-35.2388423,173.9388249,Risk Management Programme - Bee products - Honey and dried pollen processing,No,,"Bee products, Beeswax, Comb honey, Honey, Pollen",,2020-03-10,,,
BONASH205/01,Ashburton Apiaries Limited,205 Alford Forest Road,Ashburton,Ashburton District Council,,-43.8866209,171.7344039,Risk Management Programme - Bee products - Honey and dried pollen processing,No,,"Bee products, Beeswax, Honey",,2006-06-19,,,
BOPA1/01,Tristan Pringle & Cushla Hume-Merry,"338 Rea Road, Tahawai",Katikati,Far North District Council,,0.0,0.0,Risk Management Programme - Bee products - Honey and dried pollen processing,No,,"Bee products, Honey",,2020-12-03,Bay of Plenty Apiaries,,
BOSTOCK1/01,Bostock Brothers Limited,30B James Rochfort Place,Hastings,Hastings District Council,,-39.6075669,176.7788573,Risk Management Programme - Custom,No,,"Animal products (non-dairy), Bivalve molluscan shellfish, Chickens, Fish, Layer hens, Non-AP, Poultry, Red offals",,2023-10-09,,,
BOSTOCK2/01,Bostock Brothers Limited,"81 Raukawa Road,Bridge Pa",Hastings,Hastings District Council,,-39.6616579,176.7552512,Risk Management Programme - Chicken producers,No,,Broiler (meat) chickens,,2023-11-24,,,
BOULDERS25/01,Blooming Boulders Limited,450 Grove Burn Road,Tuatapere,Southland District Council,,-46.1052273,167.6363237,Risk Management Programme - Eggs,No,,Eggs,,2025-09-30,Beaks & Boulders,,
BOWMONT2/01,Bowmont Wholesale Meats Limited,122 Otepuni Avenue,Invercargill,Invercargill City Council,,-46.4119826,168.3910327,Risk Management Programme - Dual operator butcher,No,,"Animal products (non-dairy), Fish, Poultry, Red meat",,2011-07-20,,,
BOWYER02/01,Manuka Orchard Limited,"314 Old Coach Road, RD 9",Te Puke,Western Bay Of Plenty District Council,,0.0,0.0,Risk Management Programme - Bee products - Honey and dried pollen processing,No,,"Bee products, Beeswax, Honey",,2023-07-13,,,
BP10/01,Bulk Storage Terminals Limited,182 Totara Street,Mount Maunganui,Tauranga City Council,,-37.6611548,176.1867162,Risk Management Programme - Stores - Cold and Dry,No,,"Animal products (non-dairy), Fats/oils",,2005-12-09,,,
BP18/01,Hilton Haulage Limited Partnership,"50 Sheffield Street, Washdyke",Timaru,Timaru District Council,,-44.3535564,171.2524786,Risk Management Programme - Custom,No,,"Animal products (non-dairy), Fish, Fish meal",,2022-11-11,,,
BP2/01,Graincorp Liquid Terminals NZ Limited,Island Harbour,Bluff,Invercargill City Council,,-46.5922557,168.3301096,Risk Management Programme - Stores - Cold and Dry,No,,"Animal products (non-dairy), Fats/oils",,2014-02-17,,,
BP3/01,Graincorp Liquid Terminals NZ Limited,Breakwater Road,Napier,Napier City Council,,-39.4777551,176.9170949,Risk Management Programme - Custom,No,,"Animal products (non-dairy), Fats/oils, Tallow",,2014-02-19,,,
BP5/01,Graincorp Liquid Terminals NZ Limited,44 Talbot Street,Timaru,Timaru District Council,,-44.3933075,171.2626203,Risk Management Programme - Custom,No,,Tallow,,2021-02-26,,,
BP55/01,Liqueo Bulk Storage Limited,Talbot Street,Timaru,Timaru District Council,,-44.3935572,171.2619549,Risk Management Programme - Custom,No,,"Animal products (non-dairy), Fats/oils",,2022-10-07,,,
BP9/01,Direct Fats and Oils Limited,"30 Neales Road, East Tamaki",Auckland,Auckland Council,,-36.9355384,174.8914408,Risk Management Programme - Custom,No,,Tallow,,2021-10-29,,,
BPW001/01,Oceania Meat Processors Limited,"32 Shaw Street, Redruth",Timaru,Timaru District Council,,-44.4177176,171.246767,Risk Management Programme - Custom,No,,"Animal products (non-dairy), Fats/oils, Meat & bone meal, Red meat, Tallow",,2020-04-02,,,
BPW10/02,Prime Range Meats Limited,"Sussex Street, Waikiwi",Invercargill,Invercargill City Council,,0.0,0.0,Risk Management Programme - Custom,No,,"Dried blood, Meat & bone meal, Meat meal, Tallow",,2022-06-30,,,
BPW15/01,Wallace Proteins Limited,"266D Wood Road, RD 1",Waitoa,Matamata-Piako District Council,,0.0,0.0,Risk Management Programme - Custom,No,,"Animal products (non-dairy), Dried blood, Feather meal, Meat & bone meal, Poultry meal, Red meat, Tallow",,2023-05-10,,,
BPW2/01,South Canterbury By-Products (2009) Limited,"122 Aorangi Road, Washdyke",Timaru,Timaru District Council,,-44.3503899,171.2616357,Risk Management Programme - Custom,No,,"Meat & bone meal, Red meat, Tallow",,2022-10-10,,,
BPW29/01,Keep It Clean Limited,"37 Boundary Road, Burnside",Dunedin,Dunedin City Council,,-45.8947857,170.4469191,Risk Management Programme - Custom,No,,"Meat & bone meal, Red meat, Tallow",,2020-05-12,,,
BPW3/01,South Canterbury By-Products (2009) Limited,180 Dukes Road North,Mosgiel,Dunedin City Council,,-45.8573124,170.3630659,Risk Management Programme - Custom,No,,"Meat & bone meal, Tallow",,2022-10-10,,,
BPW31/01,AFFCO New Zealand Limited,Great South Road,Horotiu,Waikato District Council,,-37.7054715,175.205053,Risk Management Programme - Custom,No,,"Animal products (non-dairy), Dried blood, Meat & bone meal, Tallow",,2004-06-25,,,
BPW36/01,Taranaki By-Products Limited,1 Kohiti Road,OKAIAWA,South Taranaki District Council,,0.0,0.0,Risk Management Programme - Custom,No,,"Animal products (non-dairy), Blood & bone meal, Chicken fat, Dried blood, Feather meal, Hides & Skins, Meat & bone meal, Meat meal, Poultry meal, Tallow",,2003-07-17,,,
BPW39/01,Sanford Limited,"North Mole, Hall Street",Timaru,Timaru District Council,,0.0,0.0,Risk Management Programme - Custom,No,,"Animal products (non-dairy), Fish, Fish meal, Fish oil",,2020-02-07,,,
BPW41/01,Silver Fern Farms Limited,Tawhiti Road,Hawera,South Taranaki District Council,,-39.5729643,174.3026048,Risk Management Programme - Custom,No,,"Animal products (non-dairy), Blood meal, Dried blood",,2022-10-05,,,
BPW43/01,Value Proteins Limited,"28 Heaphy Road, Haupiri, RD 1",Dobson,Grey District Council,,0.0,0.0,Risk Management Programme - Custom,No,,"Dried blood, Meat & bone meal, Tallow",,2023-07-25,,,
BPW46/01,Tegel Foods Limited,"112 Carmen Road, Hornby",Christchurch,Christchurch City Council,,-43.5343717,172.5315396,Risk Management Programme - Custom,No,,"Poultry meal, Tallow",,2004-06-25,,,
BPW47/02,Bluff Proteins Limited,284 Foreshore Road,Bluff,Invercargill City Council,,-46.5972322,168.3373146,Risk Management Programme - Custom,No,,"Animal products (non-dairy), Fish, Fish meal, Meat & bone meal, Poultry, Poultry meal, Red meat, Tallow",,2025-11-06,,,
BRAGUTA5Q/01,Braguta's Queens Limited,"221 Waitao Road, Welcome Bay",Tauranga,Tauranga City Council,,0.0,0.0,Risk Management Programme - Bee products - Honey and dried pollen processing,No,,"Bee products, Beeswax, Honey",,2015-02-05,,,
BRIGHTG001/01,The Cross of Changes Limited,232 Taieri Mouth Road,Dunedin,Dunedin City Council,,-45.9712641,170.2839856,Risk Management Programme - Eggs,No,,"Eggs, Layer chickens, Rearer laying chickens",,2022-02-01,,,
BS2975/01,Sheehan Apiaries Limited,"217 Feredays Road, RD 3",Leeston,Selwyn District Council,,0.0,0.0,Risk Management Programme - Bee products - Honey and dried pollen processing,No,,"Animal products (non-dairy), Bee products, Beeswax, Honey",,2020-10-08,,,
BTK7/01,Himatangi Farms Limited,"372 Rangiotu Road,Rangiotu",Palmerston North,Manawatu District Council,,0.0,0.0,Risk Management Programme - Eggs,No,,Eggs,,2021-12-21,,,
BUCK001/01,Kaimata Farms Limited,729 Tarata Road,Inglewood,New Plymouth District Council,,-39.1567418,174.2272723,Risk Management Programme - Eggs,No,,"Eggs, Layer chickens, Rearer laying chickens",,2021-11-17,Buckeye Products,,
BUCKSFARM1/01,"Gavin Wayne Buckthought, Judith Ann Buckthought, and Jacob Ronald Buckthought",[Private],Hawera,South Taranaki District Council,,0.0,0.0,Risk Management Programme - Eggs,No,,"Eggs, Layer chickens",,2025-11-11,BUCKSFARM,,
BUENBIO37/01,Buen Bioceuticals (NZ) Limited,"8 Blackburn Road, East Tamaki",Auckland,Auckland Council,,-36.9407397,174.889037,Risk Management Programme - Custom,No,,"Animal products (non-dairy), Bivalve molluscan shellfish, Deer Co-products, Deer Velvet, Fish, Non-AP, Red meat",,2023-06-12,,,
BURT4HONEY/01,Michael Joseph Burt,"793 Back Ormond Road, Hexton",Gisborne,Gisborne District Council,,-38.6126181,177.974075,Risk Management Programme - Bee products - Honey and dried pollen processing,No,,Bee products,,2022-11-21,,,
BURTONS1/01,Burton's Butchery Limited,"9224 STATE HIGHWAY 26 PAEROA KOPU ROAD, MATATOKI",MATATOKI,Hauraki District Council,,0.0,0.0,Risk Management Programme - Dual operator butcher,No,,"Animal products (non-dairy), Poultry, Red meat",,2016-05-11,,,
BUTCHERY28/01,Newton Goodmeats 2017 Limited,3 Richmond Street,Gore,Gore District Council,,-46.0974057,168.9479796,Risk Management Programme - Dual operator butcher,No,,"Animal products (non-dairy), Red meat",,2019-02-20,Goodmeats Butchery,,
BUZZAP1/01,Buzz Apiaries Limited,"63 Rea Road, RD 2",Katikati,Far North District Council,,0.0,0.0,Risk Management Programme - Bee products - Honey and dried pollen processing,No,,"Bee products, Bee venom, Beeswax, Honey",,2022-09-19,,,
BVE01/01,L & M Flett,"475 Otautau-Tuatapere Road,RD 2",Otautau,Southland District Council,,0.0,0.0,Risk Management Programme - Eggs,No,,"Eggs, Layer chickens, Rearer laying chickens",,2022-07-07,Ranchview Eggs,,
BVJ931/01,Bella Vacca Jerseys Limited,"568 Pokapu Road, RD 1",Kawakawa,Far North District Council,,0.0,0.0,"Risk Management Programme - Dairy - Liquid milk domestic supply, Farm dairies - Domestic supply",No,,"Dairy material, Dairy products, Fermented milk products, Milk & cream",,2023-01-11,,,
BVRMP01/01,Biovit GMP Laboratories Limited,"6 Wilk Lane, Browns Bay",Auckland,Auckland Council,,-36.7174071,174.742013,Risk Management Programme - Custom,No,,"Animal products (non-dairy), Bee products, Bivalve molluscan shellfish, Deer Velvet, Fish, Gelatine, Red meat",,2019-11-28,,,
BWN2/01,Brian William Narbey,"234 Carrs Road, RD 2",Rangiora,Waimakariri District Council,,0.0,0.0,Risk Management Programme - Bee Products Processing and Storage,No,,"Bee products, Beeswax, Honey",,2022-10-14,Renegat Apiaries,,
C09/01,Ewing Poultry Limited,"83 Main Road,Hope",Nelson,Nelson City Council,,0.0,0.0,"Risk Management Programme - Custom, Eggs",No,,"Animal products (non-dairy), Eggs, Layer chickens, Rearer laying chickens",,2022-07-21,Quail Valley,,
C2C/01,100% Pure New Zealand Honey Limited,"24 Limmer Road, RD 8",Hamilton,Hamilton City Council,,0.0,0.0,Risk Management Programme - Bee products - Bulk honey storage,No,,Bee products other than honey,,2023-09-04,,,
CA01/01,Calibre Apiaries Limited,61 Front Miranda Road,WAITAKARURU,Hauraki District Council,,0.0,0.0,Risk Management Programme - Stores - Cold and Dry,No,,Animal products (non-dairy),,2019-05-10,,,
CALLAGHAN2/01,Callaghan Innovation,69 Gracefield Road,Lower Hutt,Hutt City Council,,-41.238468,174.917185,Risk Management Programme - Custom,No,,Propolis,,2020-10-21,,,
CAMBEES103/01,Prolife Foods Limited,"63 Benn Road, Pukekura",Cambridge,Waipa District Council,,-37.9296041,175.4987882,Risk Management Programme - Bee products - Honey and dried pollen processing,No,,"Bee products, Beeswax, Honey",,2023-09-11,Cambridge Bee Products,,
CANBIL777/01,Canterbury Biltong Limited,"59 Kennaway Road, Woolston",Christchurch,Christchurch City Council,,-43.5617493,172.6920984,Risk Management Programme - Custom,No,,"Animal products (non-dairy), Non-AP, Red meat",,2023-08-07,,,
CANTCHOIC1/01,Canterburys Choice Limited,715 Ellesmere Junction Road,Lincoln,Christchurch City Council,,-43.6420774,172.4689759,"Risk Management Programme - Dairy - Liquid milk domestic supply, Dairy - Yoghurt domestic supply, Farm dairies - Domestic supply",No,,"Dairy material, Dairy products, Fermented milk products, Milk & cream",,2023-05-04,,,
CARPLU1/01,Cargo Plus Limited,"107 McLaughlins Road, Wiri",Auckland,Auckland Council,,-37.0158299,174.8428924,Risk Management Programme - Stores - Cold and Dry,No,,"Animal products (non-dairy), Dairy products, Non-AP",,2019-12-03,,,
CATLINS1/01,Grant Derek Hayes and Jacinda Elizabeth Hayes,"1011 Lochiel Branxholme Road, RD 4",Invercargill,Invercargill City Council,,0.0,0.0,Risk Management Programme - Bee products - Honey and dried pollen processing,No,,"Bee products, Beeswax, Comb honey, Honey",,2017-05-30,Catlins Honey,,
CATTER76/01,Blue-Asha Limited,159 Williams Street,Kaiapoi,Waimakariri District Council,,-43.3808561,172.6601294,Risk Management Programme - Dual operator butcher,No,,"Animal products (non-dairy), Poultry, Red meat",,2022-12-23,Cattermoles Butchery,,
CB01/01,Colonial 2022 Limited,"109 Cavendish Drive, Manukau",Auckland,Auckland Council,,-36.9886695,174.877306,Risk Management Programme - Custom,No,,"Animal products (non-dairy), Poultry, Red meat",,2023-08-22,Colonial Bacon & Ham Company 2023,,
CBOL1/01,Campbell's Butchery (Oamaru) Limited,160 Thames Street,Oamaru,Waitaki District Council,,-45.1020354,170.9693011,Risk Management Programme - Dual operator butcher,No,,"Animal products (non-dairy), Poultry, Red meat",,2015-10-21,,,
CBOMBEGGS1/01,Homestead Farm 2024 Limited,455 Paddys Alley Road,ATHOL,Southland District Council,,-45.5433488,168.5561018,Risk Management Programme - Eggs,No,,Eggs,,2023-09-05,,,
CBP2/01,Karetu Honey Limited,58 Locks Road,Hunterville,Rangitikei District Council,,-39.7894459,175.4967349,Risk Management Programme - Bee products - Bulk honey storage,No,,"Bee products, Beeswax",,2023-07-31,,,
CBPGOLD18/01,Prolife Foods Limited,"18 Lincoln Street, Frankton",Hamilton,Hamilton City Council,,-37.7866418,175.2567563,Risk Management Programme - Bee products - Bulk honey storage,No,,Bee products,,2020-07-02,Cambridge Bee Products,,
CC084/01,Pakihi Marine Farms Limited,"914 Clevedon-Kawakawa Bay Road, Clevedon",Auckland,Auckland Council,,0.0,0.0,Risk Management Programme - Custom,No,,"Animal products (non-dairy), Bivalve molluscan shellfish",,2015-01-08,,,
CC888/01,Penelope Stark,262 Grays Road,Amberley,Hurunui District Council,,-43.170675,172.7037248,Risk Management Programme - Eggs,No,,"Eggs, Layer chickens, Rearer laying chickens",,2025-11-19,Clever Clucks,,
CCL1/01,Van Den Brink Poultry Limited,"175 Manion Road, Weedons",Christchurch,Christchurch City Council,,0.0,0.0,Risk Management Programme - Custom,No,,"Animal products (non-dairy), Chickens, Layer hens, Poultry",,2013-07-31,,,
CDF001/01,Sharon Pekelaar,"283 Corbett Road, RD 3",Bell Block,New Plymouth District Council,,0.0,0.0,Risk Management Programme - Eggs,No,,Eggs,,2022-01-07,Carpe Diem Farms,,
CECILMEAT1/01,Absolute Meats Limited,109 Hakiaha Street,Taumarunui,Ruapehu District Council,,-38.8837183,175.2554035,Risk Management Programme - Dual operator butcher,No,,"Animal products (non-dairy), Eggs, Non-AP, Red meat",,2023-07-13,,,
CF2020/01,D & A Finnerty & Dairynet Farms Trust,"84B Toa Road, RD 1",Waitoa,Matamata-Piako District Council,,0.0,0.0,Risk Management Programme - Farm dairies - Export eligible milk,No,,Dairy material,,2023-06-27,C&F Partnership,,
CFDNZ1/01,Contract Freeze Dry NZ Limited,3 Parsons Road,Oamaru,Waitaki District Council,,-45.0946946,170.9475656,Risk Management Programme - Custom,No,,"Animal products (non-dairy), Bee products, Bivalve molluscan shellfish, Deer Co-products, Deer Velvet, Eggs, Fish, Non-AP, Poultry, Red meat",,2024-10-21,,,
CFL001/01,Curds First Limited,"Unit 5,21 Kiriwehi Street,Tauriko",Tauranga,Tauranga City Council,,0.0,0.0,Risk Management Programme - Dairy Products,No,,Firm and hard cheese (MSNF < 60%),,2025-11-06,Curds First,,
CFL01/01,Craddock Farms Limited,"8 Coulston Road,Ramarama",Auckland,Auckland Council,,-37.1637045,174.9511534,Risk Management Programme - Eggs,No,,Layer chickens,,2023-10-30,,,
CFL02/01,Craddock Farms Limited,"963 Tauranga Direct Road, State Highway 26",Rotorua,Rotorua Lakes Council,,0.0,0.0,Risk Management Programme - Eggs,No,,Eggs,,2021-11-16,,,
CFL3/01,Cabernet Foods Limited,75 Henry Road,Taupiri,Waikato District Council,,-37.6266285,175.249448,Risk Management Programme - Custom,No,,"Animal products (non-dairy), Non-AP, Red meat",,2023-08-11,,,
CH1142754/01,Jules & Co. Limited,"240A Wills Road, RD 2",Upper Moutere,Tasman District Council,,0.0,0.0,Risk Management Programme - Eggs,No,,"Eggs, Layer chickens, Rearer laying chickens",,2023-10-04,Willow Creek Farm,,
CH1252/01,Clarence River Harvest Limited,3584 State Highway 1,CLARENCE,Christchurch City Council,,-42.1565379,173.9160154,Risk Management Programme - Bee products - Bulk honey storage,No,,"Bee products, Beeswax, Honey",,2022-11-03,,,
CHANDLER01/01,Talley's Group Limited,14 Chandler Close,Riverlands,Nelson City Council,,-41.5415983,174.0246796,Risk Management Programme - Stores - Cold and Dry,No,,"Animal products (non-dairy), Bee products, Dairy products, Fats/oils, Non-AP",,2023-03-09,,,
CHC5001/01,Newton Co Limited,"273 Lilly Road, Fernside",Rangiora,Waimakariri District Council,,0.0,0.0,Risk Management Programme - Chicken producers,No,,Broiler (meat) chickens,,2023-10-04,,,
CHC5002/01,Hallfield Limited,"474 Bradleys Road, Ohoka",Christchurch,Christchurch City Council,,0.0,0.0,Risk Management Programme - Chicken producers,No,,Broiler (meat) chickens,,2023-10-12,,,
CHC5006/01,JDC Chickens Limited,"592 Maddisons Road, RD5",Rolleston,Selwyn District Council,,0.0,0.0,Risk Management Programme - Chicken producers,No,,Broiler (meat) chickens,,2023-10-25,,,
CHC5007/01,Ommel Holdings Limited,"145 Alstons Rd, Weedons",Christchurch,Christchurch City Council,,0.0,0.0,Risk Management Programme - Chicken producers,No,,Broiler (meat) chickens,,2023-10-04,,,
CHC5008/01,J Taylor Limited,"660 Robinsons Road, Broadfield",Christchurch,Christchurch City Council,,0.0,0.0,Risk Management Programme - Chicken producers,No,,Broiler (meat) chickens,,2023-10-30,,,
CHC5009/01,E&T Ryan Partnership,2214 West Coast Road,AYLESBURY,Selwyn District Council,,-43.5166564,172.2448553,Risk Management Programme - Chicken producers,No,,Broiler (meat) chickens,,2023-10-26,,,
CHC5010/01,Duncrook Dairy Limited,"92 North Eyre Rd, Mandeville",Christchurch,Christchurch City Council,,0.0,0.0,Risk Management Programme - Chicken producers,No,,Broiler (meat) chickens,,2023-10-12,,,
CHC5011/01,Upway Park Poultry Limited,"125 Alstons Rd, Weedons",Christchurch,Christchurch City Council,,0.0,0.0,Risk Management Programme - Chicken producers,No,,Broiler (meat) chickens,,2023-10-12,,,
CHC5012/01,FG Crossroads Partnership,"Corner Tramway, Burts & Kings Roads, Killinchy",Christchurch,Christchurch City Council,,0.0,0.0,Risk Management Programme - Chicken producers,No,,Broiler (meat) chickens,,2023-10-12,,,
CHC5013/01,P.J.G. Bennenbroek Limited,"15 Horndon Rd, Darfield",Christchurch,Christchurch City Council,,0.0,0.0,Risk Management Programme - Chicken producers,No,,Broiler (meat) chickens,,2023-10-12,,,
CHC5015/01,N & C Hay Limited,969 Waterholes Road,Christchurch,Christchurch City Council,,0.0,0.0,Risk Management Programme - Chicken producers,No,,Broiler (meat) chickens,,2023-10-26,,,
CHC5016/01,Clucking Good Chickens Limited,"63 Springston Rolleston Road,Lincoln",Christchurch,Christchurch City Council,,0.0,0.0,Risk Management Programme - Chicken producers,No,,Broiler (meat) chickens,,2023-10-25,,,
CHC5019/01,Matara Holdings Limited,"929 Old West Coast Road, West Melton",Christchurch,Christchurch City Council,,-43.5007684,172.403406,Risk Management Programme - Chicken producers,No,,Broiler (meat) chickens,,2023-10-12,,,
CHC5027/01,N.P. Dawson and Estate of G.R Dawson,"383 Newtons Road, Weedons",Christchurch,Christchurch City Council,,0.0,0.0,Risk Management Programme - Chicken producers,No,,Broiler (meat) chickens,,2023-10-11,,,
CHC5031/01,Vivre La Vie Limited,908 Two Chain Road,BURNHAM,Selwyn District Council,,-43.6123109,172.2652564,Risk Management Programme - Chicken producers,No,,Broiler (meat) chickens,,2023-10-27,,,
CHC5033/01,M A & K J Cunningham Partnership,51 Tramway Road,Kirwee,Selwyn District Council,,-43.4970408,172.2084352,Risk Management Programme - Chicken producers,No,,Broiler (meat) chickens,,2023-10-25,Glenone,,
CHC5035/01,M A & K J Cunningham Partnership,"461 Dawsons Road, RD6",Christchurch,Christchurch City Council,,0.0,0.0,Risk Management Programme - Chicken producers,No,,Broiler (meat) chickens,,2023-10-11,,,
CHC5039/01,Yaldhurst Chicken Farm Limited,"537 Pound Rd, Yaldhurst",Christchurch,Christchurch City Council,,-43.5142825,172.5075262,Risk Management Programme - Chicken producers,No,,Broiler (meat) chickens,,2023-10-24,,,
CHC5054/01,Brough Farms (2019) Limited,"4 Logans Road, Mandeville",Christchurch,Christchurch City Council,,0.0,0.0,Risk Management Programme - Chicken producers,No,,Broiler (meat) chickens,,2023-10-19,,,
CHCH5018/01,Clarence Harvest Limited,"1059 Poyntz Road, Horrellville",Christchurch,Christchurch City Council,,0.0,0.0,Risk Management Programme - Chicken producers,No,,Broiler (meat) chickens,,2023-10-09,,,
CHEMCARE1/01,NZ Chemical Care & Storage Limited,"259 James Fletcher Drive,Otahuhu",Auckland,Auckland Council,,-36.949452,174.8194606,Risk Management Programme - Transport and Storage,No,,"Animal products (non-dairy), Dairy products, Fats/oils, Non-AP",,2024-10-14,Chemcare,,
CHEMFR8T/01,Chemical Freight Services Limited,"15 Echelon Place, East Tamaki",Auckland,Auckland Council,,-36.935068,174.8823298,Risk Management Programme - Stores - Cold and Dry,No,,"Animal products (non-dairy), Dairy products, Fats/oils, Non-AP",,2019-03-20,,,
CHEMPRO1/01,DGL (NZ) Limited,"22 Hobill Avenue, Wiri",Auckland,Auckland Council,,-37.0012298,174.8737319,Risk Management Programme - Stores - Cold and Dry,No,,"Animal products (non-dairy), Non-AP",,2022-01-26,,,
CHICKLADY1/01,N & A ENTERPRISES LIMITED,476 Waihaorunga Back Road,Waimate,Waimate District Council,,-44.726644,170.77429,Risk Management Programme - Chicken producers,No,,Rearer laying chickens,,2023-11-29,The Chicken Lady,,
CHK1/01,Trevor Eric & Jennifer Margaret Rouse,152 Queen Street,Cambridge,Waipa District Council,,-37.890566,175.4757831,Risk Management Programme - Dual operator butcher,No,,"Animal products (non-dairy), Fish, Poultry, Red meat",,2023-09-11,Cambridge Homekill,,
CHL1/01,Coastal Honey Limited,"84 Waihekau Road, RD 1",Te Aroha,Matamata-Piako District Council,,0.0,0.0,Risk Management Programme - Bee products - Honey and dried pollen processing,No,,"Bee products, Beeswax, Honey",,2019-02-14,,,
CHOPLTD1/01,Chopped Limited,"260 Broad Gully Road, RD9",MORVEN,Waimate District Council,,0.0,0.0,Risk Management Programme - Dual operator butcher,No,,"Animal products (non-dairy), Red meat",,2022-12-16,,,
CHOPPA2/01,Chop Shop Home Kill Limited,"1789C Ngunguru Road, RD 3",Whangarei,Whangarei District Council,,0.0,0.0,Risk Management Programme - Dual operator butcher,No,,"Animal products (non-dairy), Fish, Poultry, Red meat",,2022-12-09,,,
CHPL2006/01,Canterbury Honey Processors Limited,"18 Buchans Road, RD 1",Ashburton,Ashburton District Council,,0.0,0.0,Risk Management Programme - Bee products - Honey and dried pollen processing,No,,"Bee products, Beeswax, Comb honey, Honey",,2023-05-25,,,
CHURCH23/01,Asset Leasing Limited,"1383 Churchill Road,216 Willis Street,Te Aro",Pukekawa,Wellington City Council,,0.0,0.0,Risk Management Programme - Eggs,No,,Eggs,,2023-10-30,Churchill Free Range,,
CJ252/01,Lindis Honey Limited,230A Bannockburn Road,Cromwell,Central Otago District Council,,-45.0712497,169.1726579,Risk Management Programme - Bee products - Honey and dried pollen processing,No,,"Bee products other than honey, Beeswax, Comb honey, Honey, Propolis",,2023-09-11,,,
CL100FR/01,Chickenlittle Limited,58 Wall Road,Foxton,Horowhenua District Council,,-40.4311018,175.307694,Risk Management Programme - Chicken producers,No,,Broiler (meat) chickens,,2023-11-10,,,
CL4HONEY/01,Coromandel Honey Limited,"268 Colville Road, RD 4",Coromandel,Thames-Coromandel District Council,,0.0,0.0,Risk Management Programme - Bee products - Honey and dried pollen processing,No,,"Bee products, Beeswax, Honey",,2023-05-24,,,
CM01/01,Colin James McLean,120 Mason Road,GREAT BARRIER ISLAND,Auckland Council,,-36.2711273,175.4781207,Risk Management Programme - Bee products - Honey and dried pollen processing,No,,"Bee products, Beeswax, Honey",,2014-10-28,,,
CMP2017/01,Impala Butchers Limited,"1578 Kahikatea Flat Road,RD1",Kaukapakapa,Auckland Council,,0.0,0.0,Risk Management Programme - Dual operator butcher,No,,"Animal products (non-dairy), Poultry, Red meat",,2023-03-13,Country Meat Processors,,
COLAB1/01,Otautahi Co-Lab Limited,"10A Senior Place, Bromley",Christchurch,Christchurch City Council,,-43.5300892,172.6953699,Risk Management Programme - Custom,No,,"Animal products (non-dairy), Bee products, Bivalve molluscan shellfish, Fish, Non-AP, Poultry, Red meat",,2023-11-07,,,
COLLISEGG1/01,Lucky Streak Farm Limited,"9779 State Highway 2, RD 1",Waihi,Hauraki District Council,,0.0,0.0,Risk Management Programme - Eggs,No,,Eggs,,2023-07-27,Happy Hens Waihi,,
COLYTON1/01,Colyton Chicks Limited,243 Nannestad Line,Feilding,Manawatu District Council,,0.0,0.0,Risk Management Programme - Eggs,No,,Eggs,,2024-05-10,,,
COMVITA20/01,Comvita New Zealand Limited,23 Wilson Road South,PAENGAROA,Western Bay Of Plenty District Council,,-37.8200589,176.4119218,Risk Management Programme - Custom,No,,"Animal products (non-dairy), Bee products other than honey, Gelatine, Honey",,2022-03-03,,,
CORO1/01,Pieter Van Leeuwen,"1109 Tairua Road, RD 1",Whangamata,Hauraki District Council,,0.0,0.0,"Risk Management Programme - Dairy - Cheese domestic supply, Farm dairies - Domestic supply",No,,"Dairy material, Dairy products, Firm and hard cheese (MSNF < 60%), Milk & cream",,2022-05-04,Coromandel Cheese,,
CP1/01,Clyde Processing Limited,27 Sunderland Street,Clyde,Central Otago District Council,,-45.1768456,169.3090668,Risk Management Programme - Dual operator butcher,No,,"Poultry, Red meat",,2003-03-26,,,
CPF1/01,Hawkes Bay Eggs Limited,"159 Mangaroa Road, RD 4",Hastings,Hastings District Council,,0.0,0.0,Risk Management Programme - Eggs,No,,Eggs,,2021-11-16,,,
CPFL02/01,Canterbury Pet Foods Limited,"166 Bradleys Road, Ohoka, RD 2",Kaiapoi,Waimakariri District Council,,0.0,0.0,Risk Management Programme - Custom,No,,"Alpacas/llamas, Animal products (non-dairy), Cattle, Farmed Deer, Farmed goats, Fish, Game estate deer, Game estate goats, Game estate tahr, Hides & Skins, Horses (includes mules, donkeys & hinnies), Non-AP, Poultry, Red meat, Sheep, Wild chamois, Wild deer, Wild goats, Wild hares, Wild pigs, Wild possums, Wild rabbits, Wild tahr, Wild wallabies",,2022-01-26,,,
CRA1G/01,Craigs Poultry Limited,"24 Ross Road, Herbert",Oamaru,Waitaki District Council,,0.0,0.0,Risk Management Programme - Eggs,No,,"Eggs, Layer chickens, Rearer laying chickens",,2022-10-06,,,
CRA8/01,Schuck Enterprises Limited,18 Snodgrass Road,Te Anau,Southland District Council,,0.0,0.0,Risk Management Programme - Custom,No,,"Crustaceans (including rock lobsters), Fish",,2013-05-07,CRA8 Fisheries,,
CRAW20/01,Crawford Carrying Co Limited,"8-10 Toop Street, Seaview",Lower Hutt,Hutt City Council,,-41.2453651,174.9019679,Risk Management Programme - Transport - Animal material and animal products,No,,"Animal products (non-dairy), Dairy products",,2021-06-03,,,
CRM1/01,Service Foods Limited,"8 Simsey Place, Te Rapa Park",Hamilton,Hamilton City Council,,-37.7360916,175.2202803,Risk Management Programme - Custom,No,,"Animal products (non-dairy), Poultry, Red meat",,2020-05-19,Chef Ready Meats,,
CROFT01/01,T Croft Limited,"99 Arnold Valley Road,Stillwater",Greymouth,Auckland Council,,0.0,0.0,Risk Management Programme - Custom,No,,Dairy material,,2025-11-21,Croft Transport,,
CROMWELL1/01,Fallowstone Limited,9 The Mall,Cromwell,Central Otago District Council,,-45.0371587,169.1967547,Risk Management Programme - Dual operator butcher,No,,"Animal products (non-dairy), Red meat",,2014-06-04,,,
CRPD1/01,Orchard View Limited,"644 Mangawhai Road, Te Arai",Wellsford,Auckland Council,,0.0,0.0,Risk Management Programme - Farm dairies - Domestic supply,No,,Dairy material,,2023-01-26,,,
CRSD1/01,Craggy Range Sheep Dairy Limited,"348 Craggy Range Road, Tuki Tuki",Havelock North,Central Hawkes Bay District Council,,0.0,0.0,Risk Management Programme - Farm dairies - Domestic supply,No,,Dairy material,,2021-11-09,,,
CRUMP1/01,Lifes Buzzy Limited,"222B Newton Road,Omapere",Hokianga,Far North District Council,,-35.5330165,173.408675,Risk Management Programme - Bee products - Honey and dried pollen processing,No,,"Bee products, Beeswax, Honey",,2025-03-17,,,
CSNZ01/01,Cosana New Zealand Limited,"3 Keehan Drive, Hilltop",Taupo,Taupo District Council,,-38.7000384,176.1105836,Risk Management Programme - Bee Products Processing and Storage,No,,Bee products,,2021-07-28,,,
CSNZ02/01,Cosana New Zealand Limited,"8 Keehan Drive,Hilltop",Taupo,Taupo District Council,,-38.7010597,176.1089207,Risk Management Programme - Bee products - Bulk honey storage,No,,Bee products,,2024-09-02,,,
CSNZ144/01,Cosana New Zealand Limited,"144 Rakaunui Road,Rotokawa",Taupo,Taupo District Council,,-38.6641351,176.1174042,"Risk Management Programme - Bee Products Processing and Storage, Custom",No,,Bee products,,2025-07-18,,,
CT495/01,Circle & Triangle Limited,"495 Brookby Road, Brookby",Auckland,Auckland Council,,-36.9753926,174.9911314,"Risk Management Programme - Chicken producers, Eggs",No,,"Breeder chickens, Day-old chicks, Eggs, Layer chickens, Rearer laying chickens",,2023-04-13,Hangzhou Trust,,
CTASTE1/01,Country Taste Smallgoods Limited,15-17 Herekino Street,Whangarei,Whangarei District Council,,-35.7281289,174.3264708,Risk Management Programme - Custom,No,,Red meat,,2018-11-06,,,
CTCH1/01,Woodstock Honey Limited,"206 Woodstock-Rimu Road, RD 3",Hokitika,Westland District Council,,0.0,0.0,Risk Management Programme - Bee products - Honey and dried pollen processing,No,,"Bee products, Beeswax, Comb honey, Honey",,2021-04-08,,,
CTL01/01,Central Transport Limited,"3016 Broadlands Road, RD 1",Reporoa,Rotorua Lakes Council,,0.0,0.0,Risk Management Programme - Custom,No,,Dairy material,,2021-10-20,,,
CTOM9/01,CTOM Limited,"1-3 Argus Place, Hillcrest",Auckland,Auckland Council,,-36.785536,174.7414831,Risk Management Programme - Custom,No,,"Animal products (non-dairy), Bee products, Dairy products, Non-AP, Other animal products",,2022-06-30,,,
CURED2019/01,Cured Limited,10 Pope Street,Christchurch,Christchurch City Council,,-43.5370076,172.6092841,"Risk Management Programme - Dual operator butcher, Dual operator butcher - Attachment U, Meat at Stalls",No,,"Animal products (non-dairy), Fish, Non-AP, Red meat",,2022-04-14,,,
CVP1/01,Canter Valley Processors Limited,193 Bruces Road,Sefton,Waimakariri District Council,,-43.2173424,172.6615892,Risk Management Programme - Custom,No,,"Chickens, Ducks, Geese, Layer hens, Pheasant, Poultry, Poussin, Quail, Turkey",,2011-06-17,,,
CVP2/01,Canter Valley Processors Limited,"193 Bruces Road, Sefton",Rangiora,Waimakariri District Council,,0.0,0.0,Risk Management Programme - Eggs,No,,"Eggs, Layer chickens, Rearer laying chickens",,2020-11-16,,,
DAIRYWORK1/01,Dairyworks Limited,"719 Halswell Junction Road, Hornby",Christchurch,Christchurch City Council,,-43.5479322,172.5100885,Risk Management Programme - Custom,No,,"Animal products (non-dairy), Butter, Dairy products, Firm and hard cheese (MSNF < 60%), Milk powders, Soft & semi-soft cheese (MSNF > 60%)",,2022-06-29,,,
DANN5115/01,O'Leary Holdings Limited,229 Papaiti Road,Wanganui,Whanganui District Council,,-39.8760624,175.1066233,Risk Management Programme - Custom,No,,"Chickens, Ducks, Geese, Guinea fowl, Layer hens, Pheasant, Poultry, Quail, Wild birds (ground-living)",,2019-08-27,,,
DBCHICKS20/01,D B Chicks 2014 Limited,222 South Head Road,Helensville,Auckland Council,,0.0,0.0,Risk Management Programme - Chicken producers,No,,Broiler (meat) chickens,,2023-10-09,,,
DBPB13/01,De Bauchery Limited,"169 Kiripaka Road,Tikipunga",Whangarei,Whangarei District Council,,-35.6852301,174.3281395,Risk Management Programme - Dual operator butcher,No,,"Animal products (non-dairy), Poultry, Red meat",,2025-09-16,De Bauchery,,
DCDC1/01,Deep Creek Delicatessen Corner Limited,"35 North Road,North East Valley",Dunedin,Dunedin City Council,,-45.8541717,170.5199857,Risk Management Programme - Dual operator butcher,No,,"Animal products (non-dairy), Fish, Red meat",,2015-07-27,,,
DCDC2/01,Deep Creek Delicatessen Corner Limited,"16 Prince Albert Road, Saint Kilda",Dunedin,Dunedin City Council,,-45.9000936,170.5038194,Risk Management Programme - Dual operator butcher,No,,"Animal products (non-dairy), Poultry, Red meat",,2012-09-13,,,
DEERMILK1/01,Landcorp Farming Limited,"Level 2, 15 Allen Street, Te Aro",Wellington,Wellington City Council,,0.0,0.0,Risk Management Programme - Custom,No,,Dairy material,,2023-06-02,,,
DELIHB1/01,The Deli Hawkes Bay Limited,"114 Vigor Brown Street,Napier South",Napier,Napier City Council,,-39.502298,176.9100905,Risk Management Programme - Dual operator butcher,No,,"Animal products (non-dairy), Red meat",,2021-05-27,Deli Smalls,,
DFL1/01,Dairyland Foods Limited,614 Driver Road,Taupiri,Waikato District Council,,0.0,0.0,Risk Management Programme - Farm dairies - Domestic supply,No,,Dairy material,,2023-08-21,,,
DFNZ888/01,Dry Food NZ Limited,"7 Fielder Close, Riverlands",Blenheim,Marlborough District Council,,0.0,0.0,Risk Management Programme - Custom,No,,"Animal products (non-dairy), Bee products, Bivalve molluscan shellfish, Dairy products, Fish, Non-AP, Poultry, Red meat",,2023-07-19,,,
DFO1/01,Direct Fish & Oyster Company Limited,"59 Rose Road, Roslyn Bush, RD 6",Invercargill,Invercargill City Council,,0.0,0.0,Risk Management Programme - Custom,No,,"Animal products (non-dairy), Bivalve molluscan shellfish",,2007-03-01,,,
DGF88/01,DHL Global Forwarding (New Zealand) Limited,"18 Verissimo Drive, Auckland Airport, Mangere",Auckland,Auckland Council,,0.0,0.0,Risk Management Programme - Stores - Cold and Dry,No,,"Animal products (non-dairy), Bee products, Comb honey, Dairy products, Fats/oils",,2022-01-13,,,
DGF99/01,DHL Global Forwarding (New Zealand) Limited,"7 Syd Bradley Road, Dakota Park, Christchurch Airport",Christchurch,Christchurch City Council,,0.0,0.0,Risk Management Programme - Stores - Cold and Dry,No,,"Animal products (non-dairy), Dairy products, Non-AP",,2020-08-25,,,
DHL01/01,DHL Supply Chain (New Zealand) Limited,"7-9 Niall Burgess Road, Mount Wellington",Auckland,Auckland Council,,0.0,0.0,Risk Management Programme - Stores - Cold and Dry,No,,"Animal products (non-dairy), Dairy products",,2022-10-14,,,
DHL08/01,DHL Supply Chain (New Zealand) Limited,"24 Highbrook Drive, East Tamaki",Auckland,Auckland Council,,-36.9376951,174.8808329,Risk Management Programme - Stores - Cold and Dry,No,,"Animal products (non-dairy), Dairy products",,2022-09-01,,,
DHL09/01,DHL Supply Chain (New Zealand) Limited,"92 Detroit Drive, Rolleston",Christchurch,Christchurch City Council,,0.0,0.0,Risk Management Programme - Stores - Cold and Dry,No,,"Animal products (non-dairy), Dairy products",,2022-08-01,,,
DHL10/01,DHL Global Forwarding (New Zealand) Limited,"4 Manu Tapu Drive, Mangere",Auckland,Auckland Council,,-36.9981765,174.7860251,Risk Management Programme - Stores - Cold and Dry,No,,"Animal products (non-dairy), Dairy products",,2023-03-23,,,
DJH1/01,Fiordland Meats (2018) Limited,203 Milford Road,Te Anau,Southland District Council,,0.0,0.0,Risk Management Programme - Dual operator butcher,No,,"Animal products (non-dairy), Poultry, Red meat",,2020-11-25,,,
DLG02/01,Direct Logistics Group Limited,1 Mania Road,Christchurch,Christchurch City Council,,-43.5570165,172.5056745,Risk Management Programme - Stores - Cold and Dry,No,,"Animal products (non-dairy), Bee products, Dairy products, Fats/oils, Non-AP, Other animal products",,2023-09-19,,,
DMDL01/01,D M Dunningham Limited,"655 Great South Road, Penrose",Auckland,Auckland Council,,-36.9154828,174.8218574,Risk Management Programme - Stores - Cold and Dry,No,,Animal products (non-dairy),,2023-05-19,,,
DOT1/01,Pharmazen Limited,"320 Port Hills Road, Hillsborough",Christchurch,Christchurch City Council,,-43.5653901,172.6796071,Risk Management Programme - Custom,No,,"Animal products (non-dairy), Bivalve molluscan shellfish, Deer Co-products, Deer Velvet, Fish, Gelatine, Poultry, Red meat",,2023-08-09,Waitaki Biosciences,,
DP57/01,Dad's Pies Limited,"57 Forge Road, Silverdale",Auckland,Auckland Council,,-36.6257032,174.6771904,Risk Management Programme - Custom,No,,"Animal products (non-dairy), Eggs, Fish, Non-AP, Poultry, Red meat",,2023-09-05,,,
DREAMVIEW1/01,Hillcrest Farms Limited,"430 Te Hutewai Road, RD 2",Raglan,Waikato District Council,,0.0,0.0,"Risk Management Programme - Dairy - Liquid milk domestic supply, Dairy - Yoghurt domestic supply, Farm dairies - Domestic supply",No,,"Dairy material, Dairy products, Fermented milk products, Milk & cream",,2022-12-21,Dreamview Creamery,,
DRITRIK1/01,Dri-Trik Ingredients New Zealand Limited,"16 Hannigan Drive, St Johns",Auckland,Auckland Council,,-36.8862661,174.8540872,Risk Management Programme - Custom,No,,"Animal products (non-dairy), Bee products, Eggs, Fish, Gelatine, Non-AP, Poultry, Red meat",,2022-05-25,,,
DRL6/01,Oriental Deer Holdings Limited,66 Ryans Road,Christchurch,Christchurch City Council,,-43.5084007,172.5272868,Risk Management Programme - Custom,No,,"Animal products (non-dairy), Bee products, Deer Velvet, Fats/oils, Non-AP",,2023-04-19,,,
DRT3881217/01,Tweeddale's Honey (NZ) Limited,"Wharua Road, RD 5",Taihape,Rangitikei District Council,,0.0,0.0,Risk Management Programme - Bee products - Honey and dried pollen processing,No,,"Bee products, Beeswax, Honey, Propolis",,2023-01-30,,,
DRURY01/01,Drury Church Trust,13 Sutton Road,Drury,Auckland Council,,-37.096469,174.9499132,Risk Management Programme - Eggs,No,,Eggs,,2022-01-31,,,
DRYNZ1/01,DryNZ Limited,"23 Kitchener Road, Waiuku",Auckland,Auckland Council,,0.0,0.0,Risk Management Programme - Custom,No,,"Animal products (non-dairy), Bivalve molluscan shellfish, Fish, Non-AP, Red meat",,2021-02-03,,,
DSP12/01,Progressive Meats Limited,118 Kelfield Place,Hastings,Hastings District Council,,-39.620232,176.8123038,Risk Management Programme - Custom,No,,"Animal products (non-dairy), Bobby calves, Cattle, Deer Co-products, Farmed Deer, Farmed goats, Green offal, Green runners, Hides & Skins, Red meat, Sheep",,2022-03-07,,,
DTL07/01,David Lang and Tania Lang,"56 Whataroa Road, RD 1",Te Kuiti,Waitomo District Council,,0.0,0.0,Risk Management Programme - Bee products - Honey and dried pollen processing,No,,"Bee products, Beeswax, Comb honey, Honey",,2019-12-04,,,
DUH1/01,Downunder Honey Limited,1313 Kimbolton Road,CHELTENHAM,Manawatu District Council,,-40.1495256,175.6514973,Risk Management Programme - Bee products - Honey and dried pollen processing,No,,"Bee products, Beeswax, Comb honey, Honey",,2022-04-22,,,
DUNROMIN18/01,Dunromin Farms Limited,152 Andersons Line,Carterton,Carterton District Council,,-41.0034231,175.5320589,"Risk Management Programme - Dairy - Liquid milk domestic supply, Farm dairies - Domestic supply",No,,"Dairy material, Dairy products, Milk & cream",,2023-05-17,Eketahuna Country Meats,,
DVM1/01,Darfield Village Meats Limited,35 South Terrace,Darfield,Christchurch City Council,,-43.4899374,172.1116771,Risk Management Programme - Dual operator butcher,No,,"Animal products (non-dairy), Casings, Ostriches & emus, Poultry, Red meat",,2019-06-12,,,
DW11/01,Dairyworks Limited,"11 Quadrant Drive, Hornby",Christchurch,Christchurch City Council,,-43.5523272,172.5074137,Risk Management Programme - Stores - Cold and Dry,No,,Dairy products,,2022-01-31,,,
DWD1/01,Victor Moon & Rachel Sheree Moon,154 Broadway,Kaikohe,Far North District Council,,-35.4048957,173.8052679,Risk Management Programme - Dual operator butcher,No,,"Animal products (non-dairy), Red meat",,2005-06-28,Vic's Butchery,,
EARTH1ST/01,Earth First Food Limited,"1 Aztec Place,Frankton",Hamilton,Hamilton City Council,,-37.8031553,175.2630261,Risk Management Programme - Micro Abattoir,No,,"Animal products (non-dairy), Buffalo, Cattle, Deer, Goats, Offal, Sheep, Water buffaloes/bison/cattle hybrids",,2024-07-24,,,
EARTHZPET1/01,Earthz Pet Limited,"Unit B, 151D Marua Road, Mount Wellington",Auckland,Auckland Council,,0.0,0.0,Risk Management Programme - Custom,No,,"Animal products (non-dairy), Bee products, Bivalve molluscan shellfish, Fish, Poultry, Red meat",,2023-02-16,,,
EAST123/01,Templeton Butchery (2022) Limited,"733B Main South Road,Templeton",Christchurch,Christchurch City Council,,-43.5503552,172.4872656,Risk Management Programme - Dual operator butcher,No,,"Animal products (non-dairy), Poultry, Red meat",,2022-10-18,,,
EBLCW55/01,Ellesmere Butchery Limited,79 High Street,Leeston,Selwyn District Council,,0.0,0.0,Risk Management Programme - Dual operator butcher,No,,"Animal products (non-dairy), Poultry, Red meat",,2022-01-18,,,
ECEGGS01/01,Ellis Creek Farms Limited,59 Bird Road,Takaka,Tasman District Council,,0.0,0.0,"Risk Management Programme - Chicken producers, Eggs",No,,"Eggs, Layer chickens, Rearer laying chickens",,2024-12-10,Ellis Creek Farm,,
ECFMA01/01,Ellis Creek Farms Limited,"35 Bird Road,Clifton",Takaka,Tasman District Council,,0.0,0.0,Risk Management Programme - Micro Abattoir,No,,"Alpacas/llamas, Cattle, Farmed Deer, Farmed goats, Farmed pigs, Offal, Sheep",,2023-11-24,,,
ECM1/01,Dunromin Farms Limited,110A Bentley Street,Masterton,Masterton District Council,,-40.9428644,175.6577611,Risk Management Programme - Dual operator butcher,No,,"Animal products (non-dairy), Offal, Red meat, Tallow",,2022-12-22,Eketahuna Country Meats,,
EDG1/01,Tracy Hay,4 Slippery Road,Tapawera,Tasman District Council,,-41.4399788,172.7255234,Risk Management Programme - Farm dairies - Domestic supply,No,,Dairy material,,2023-01-12,Everbrook Dairy Goats,,
EG2/01,Egmont Honey Limited,"21 Connett Road West, Bell Block",New Plymouth,New Plymouth District Council,,-39.0368155,174.1490306,Risk Management Programme - Bee products - Honey and dried pollen processing,No,,"Bee products, Honey, Non-AP",,2021-02-11,,,
EG3/01,Egmont Honey Limited,"1B Connett Road, Bell Block",New Plymouth,New Plymouth District Council,,-39.0313604,174.1674982,Risk Management Programme - Bee products - Honey and dried pollen processing,No,,Bee products,,2022-11-01,,,
EG4/01,Egmont Honey Limited,"5 Hakirau Street, Port Taranaki",New Plymouth,New Plymouth District Council,,0.0,0.0,Risk Management Programme - Bee products - Bulk honey storage,No,,Bee products,,2023-09-08,,,
EGGCITING1/01,Eggciting Eggs Limited,28 Heaphy Road,Haupiri,Grey District Council,,-42.5940618,171.7100853,Risk Management Programme - Eggs,No,,"Eggs, Layer chickens, Rearer laying chickens",,2025-01-21,,,
EGGOBS2025/01,Egg Obsession Limited,"763 Rowan Road,RD 29,Kaponga",Hawera,South Taranaki District Council,,0.0,0.0,Risk Management Programme - Eggs,No,,Eggs,,2025-07-22,,,
EGNZ01/01,EG.NZ Limited,801B Brandon Hall Road,Bulls,Rangitikei District Council,,-40.1561201,175.2875967,Risk Management Programme - Eggs,No,,Eggs,,2023-09-27,,,
EL1/01,Icepak Limited,"10 Transport Place, East Tamaki",Auckland,Auckland Council,,-36.9318395,174.8928199,Risk Management Programme - Stores - Cold and Dry,No,,"Animal products (non-dairy), Dairy products",,2023-10-13,,,
ELMSHONEY2/01,Murray James Poole,173 Manuherikia Road,Alexandra,Central Otago District Council,,-45.2366444,169.4147379,Risk Management Programme - Bee products - Honey and dried pollen processing,No,,"Bee products, Beeswax, Honey",,2018-11-12,,,
ELTHAMRMP1/01,Eltham Apiaries Limited,4568 Mountain Road,Eltham,South Taranaki District Council,,-39.4136738,174.3035181,Risk Management Programme - Bee products - Honey and dried pollen processing,No,,"Bee products, Beeswax, Comb honey, Honey",,2020-03-09,Eltham Honey Limited,,
ENT111/01,Bee Enterprises (2025) Limited,"90 Marae O Rehia Road, RD 3",Waiuku,Auckland Council,,0.0,0.0,Risk Management Programme - Bee products - Honey and dried pollen processing,No,,"Animal products (non-dairy), Bee products, Beeswax, Honey",,2023-08-17,,,
